[{"name":"Loyal Heights","incidents":[],"numIncidents":0,"percentage":0,"numVariance":-2.0342857142857143,"percentVariance":-0.5714285714285714},{"name":"Adams","incidents":[{"neighborhood":"Ballard","localhood":"Adams","type":"TRAFFIC RELATED CALLS","lat":"47.668682","lng":"-122.38697","address":"22XX BLOCK OF NW MARKET ST","id":"1792026"},{"neighborhood":"Ballard","localhood":"Adams","type":"TRAFFIC RELATED CALLS","lat":"47.668674","lng":"-122.38311","address":"NW MARKET ST / RUSSELL AV NW","id":"1792086"},{"neighborhood":"Ballard","localhood":"Adams","type":"DISTURBANCES","lat":"47.66339","lng":"-122.37964","address":"47XX BLOCK OF BALLARD AV NW","id":"1792163"},{"neighborhood":"Ballard","localhood":"Adams","type":"THEFT","lat":"47.667473","lng":"-122.39898","address":"32XX BLOCK OF NW 54 ST","id":"1792183"},{"neighborhood":"Ballard","localhood":"Adams","type":"DISTURBANCES","lat":"47.67419","lng":"-122.38222","address":"62XX BLOCK OF 20 AV NW","id":"1792314"}],"numIncidents":5,"percentage":1.4044943820224718,"numVariance":2.9657142857142857,"percentVariance":0.8330658105939004},{"name":"Whittier Heights","incidents":[],"numIncidents":0,"percentage":0,"numVariance":-2.0342857142857143,"percentVariance":-0.5714285714285714},{"name":"West Woodland","incidents":[{"neighborhood":"Ballard","localhood":"West Woodland","type":"PARKING VIOLATIONS","lat":"47.66944","lng":"-122.3749","address":"14XX BLOCK OF NW 56 ST","id":"1792052"},{"neighborhood":"Ballard","localhood":"West Woodland","type":"TRAFFIC RELATED CALLS","lat":"47.67417","lng":"-122.36186","address":"4 AV NW / NW 62 ST","id":"1792091"},{"neighborhood":"Ballard","localhood":"West Woodland","type":"RESIDENTIAL BURGLARIES","lat":"47.667183","lng":"-122.36473","address":"6XX BLOCK OF NW 53 ST","id":"1792150"},{"neighborhood":"Ballard","localhood":"West Woodland","type":"SUSPICIOUS CIRCUMSTANCES","lat":"47.664394","lng":"-122.37613","address":"NW 49 ST / 15 AV NW","id":"1792219"}],"numIncidents":4,"percentage":1.1235955056179776,"numVariance":1.9657142857142857,"percentVariance":0.5521669341894062},{"name":"Sunset Hill","incidents":[{"neighborhood":"Ballard","localhood":"Sunset Hill","type":"PROPERTY - MISSING, FOUND","lat":"47.689243","lng":"-122.4018","address":"84XX BLOCK OF SEAVIEW PL NW","id":"1792113"}],"numIncidents":1,"percentage":0.2808988764044944,"numVariance":-1.0342857142857143,"percentVariance":-0.290529695024077},{"name":"University District","incidents":[{"neighborhood":"University District","localhood":null,"type":"DISTURBANCES","lat":"47.667477","lng":"-122.30963","address":"52XX BLOCK OF 17 AV NE","id":"1792021"},{"neighborhood":"University District","localhood":null,"type":"BURGLARY ALACAD (FALSE)","lat":"47.66568","lng":"-122.31523","address":"50XX BLOCK OF 12 AV NE","id":"1792012"},{"neighborhood":"University District","localhood":null,"type":"BURGLARY ALACAD (FALSE)","lat":"47.66568","lng":"-122.31523","address":"50XX BLOCK OF 12 AV NE","id":"1792060"},{"neighborhood":"University District","localhood":null,"type":"PROPERTY DAMAGE","lat":"47.660507","lng":"-122.3009","address":"25 AV NE / NE 44 ST","id":"1792101"},{"neighborhood":"University District","localhood":null,"type":"NOISE DISTURBANCE","lat":"47.667477","lng":"-122.30963","address":"52XX BLOCK OF 17 AV NE","id":"1792102"},{"neighborhood":"University District","localhood":null,"type":"ASSAULTS","lat":"47.664005","lng":"-122.314224","address":"47XX BLOCK OF BROOKLYN AV NE","id":"1792116"},{"neighborhood":"University District","localhood":null,"type":"NOISE DISTURBANCE","lat":"47.65907","lng":"-122.31435","address":"42XX BLOCK OF BROOKLYN AV NE","id":"1792126"},{"neighborhood":"University District","localhood":null,"type":"TRESPASS","lat":"47.662224","lng":"-122.31956","address":"45XX BLOCK OF 8 AV NE","id":"1792115"},{"neighborhood":"University District","localhood":null,"type":"BURGLARY ALACAD (FALSE)","lat":"47.66568","lng":"-122.31523","address":"50XX BLOCK OF 12 AV NE","id":"1792125"},{"neighborhood":"University District","localhood":null,"type":"TRAFFIC RELATED CALLS","lat":"47.66567","lng":"-122.313065","address":"50XX BLOCK OF UNIVERSITY WY NE","id":"1792235"},{"neighborhood":"University District","localhood":null,"type":"ASSAULTS","lat":"47.663998","lng":"-122.31309","address":"47XX BLOCK OF UNIVERSITY WY NE","id":"1792292"},{"neighborhood":"University District","localhood":null,"type":"COMMERCIAL BURGLARIES","lat":"47.659054","lng":"-122.31319","address":"42XX BLOCK OF UNIVERSITY WY NE","id":"1792272"},{"neighborhood":"University District","localhood":null,"type":"PARKING VIOLATIONS","lat":"47.666428","lng":"-122.31191","address":"NE 52 ST / 15 AV NE","id":"1792268"},{"neighborhood":"University District","localhood":null,"type":"PARKING VIOLATIONS","lat":"47.666447","lng":"-122.31522","address":"NE 52 ST / 12 AV NE","id":"1792289"},{"neighborhood":"University District","localhood":null,"type":"CRISIS CALL","lat":"47.663994","lng":"-122.30545","address":"47XX BLOCK OF 21 AV NE","id":"1792359"},{"neighborhood":"University District","localhood":null,"type":"CRISIS CALL","lat":"47.664898","lng":"-122.31307","address":"NE 50 ST / UNIVERSITY WY NE","id":"1792328"},{"neighborhood":"University District","localhood":null,"type":"PARKING VIOLATIONS","lat":"47.663994","lng":"-122.30413","address":"47XX BLOCK OF 22 AV NE","id":"1792313"},{"neighborhood":"University District","localhood":null,"type":"AUTO THEFTS","lat":"47.669445","lng":"-122.312454","address":"14XX BLOCK OF NE 56 ST","id":"1792336"},{"neighborhood":"University District","localhood":null,"type":"DISTURBANCES","lat":"47.659054","lng":"-122.31319","address":"42XX BLOCK OF UNIVERSITY WY NE","id":"1792294"},{"neighborhood":"University District","localhood":null,"type":"SUSPICIOUS CIRCUMSTANCES","lat":"47.66398","lng":"-122.310814","address":"47XX BLOCK OF 16 AV NE","id":"1792339"}],"numIncidents":20,"percentage":5.617977528089887,"numVariance":17.965714285714284,"percentVariance":5.046548956661316},{"name":"East Queen Anne","incidents":[{"neighborhood":"Queen Anne","localhood":"East Queen Anne","type":"PARKING VIOLATIONS","lat":"47.62802","lng":"-122.34424","address":"6XX BLOCK OF WARD ST","id":"1792054"}],"numIncidents":1,"percentage":0.2808988764044944,"numVariance":-1.0342857142857143,"percentVariance":-0.290529695024077},{"name":"West Queen Anne","incidents":[{"neighborhood":"Queen Anne","localhood":"West Queen Anne","type":"CAR PROWL","lat":"47.637463","lng":"-122.360954","address":"21XX BLOCK OF 3 AV W","id":"1792106"},{"neighborhood":"Queen Anne","localhood":"West Queen Anne","type":"PARKING VIOLATIONS","lat":"47.634743","lng":"-122.35697","address":"QUEEN ANNE AV N / BLAINE ST","id":"1792323"}],"numIncidents":2,"percentage":0.5617977528089888,"numVariance":-0.03428571428571425,"percentVariance":-0.009630818619582593},{"name":"Lower Queen Anne","incidents":[{"neighborhood":"Queen Anne","localhood":"Lower Queen Anne","type":"DISTURBANCES","lat":"47.624588","lng":"-122.358665","address":"1XX BLOCK OF W MERCER ST","id":"1792035"},{"neighborhood":"Queen Anne","localhood":"Lower Queen Anne","type":"CRISIS CALL","lat":"47.62672","lng":"-122.34756","address":"8XX BLOCK OF 5 AV N","id":"1792139"},{"neighborhood":"Queen Anne","localhood":"Lower Queen Anne","type":"TRAFFIC RELATED CALLS","lat":"47.62211","lng":"-122.35673","address":"QUEEN ANNE AV N / HARRISON ST","id":"1792159"},{"neighborhood":"Queen Anne","localhood":"Lower Queen Anne","type":"SUSPICIOUS CIRCUMSTANCES","lat":"47.629578","lng":"-122.358574","address":"1XX BLOCK OF W HIGHLAND DR","id":"1792207"},{"neighborhood":"Queen Anne","localhood":"Lower Queen Anne","type":"TRAFFIC RELATED CALLS","lat":"47.625717","lng":"-122.35801","address":"W ROY ST / 1 AV W","id":"1792215"},{"neighborhood":"Queen Anne","localhood":"Lower Queen Anne","type":"CAR PROWL","lat":"47.62456","lng":"-122.34692","address":"5XX BLOCK OF MERCER ST","id":"1792236"},{"neighborhood":"Queen Anne","localhood":"Lower Queen Anne","type":"LIQUOR VIOLATIONS","lat":"47.62327","lng":"-122.35411","address":"WARREN AV N / REPUBLICAN ST","id":"1792358"},{"neighborhood":"Queen Anne","localhood":"Lower Queen Anne","type":"MISCELLANEOUS MISDEMEANORS","lat":"47.625584","lng":"-122.356705","address":"7XX BLOCK OF QUEEN ANNE AV N","id":"1792337"},{"neighborhood":"Queen Anne","localhood":"Lower Queen Anne","type":"DISTURBANCES","lat":"47.62154","lng":"-122.36065","address":"3XX BLOCK OF 3 AV W","id":"1792392"}],"numIncidents":9,"percentage":2.528089887640449,"numVariance":6.965714285714286,"percentVariance":1.9566613162118778},{"name":"North Queen Anne","incidents":[],"numIncidents":0,"percentage":0,"numVariance":-2.0342857142857143,"percentVariance":-0.5714285714285714},{"name":"Westlake","incidents":[],"numIncidents":0,"percentage":0,"numVariance":-2.0342857142857143,"percentVariance":-0.5714285714285714},{"name":"Eastlake","incidents":[{"neighborhood":"Cascade","localhood":"Eastlake","type":"RESIDENTIAL BURGLARIES","lat":"47.642612","lng":"-122.3271","address":"25XX BLOCK OF YALE AV E","id":"1792281"}],"numIncidents":1,"percentage":0.2808988764044944,"numVariance":-1.0342857142857143,"percentVariance":-0.290529695024077},{"name":"South Lake Union","incidents":[{"neighborhood":"Cascade","localhood":"South Lake Union","type":"TRESPASS","lat":"47.618565","lng":"-122.34584","address":"5XX BLOCK OF DENNY WY","id":"1792038"},{"neighborhood":"Cascade","localhood":"South Lake Union","type":"BURGLARY ALACAD (FALSE)","lat":"47.625572","lng":"-122.3343","address":"7XX BLOCK OF FAIRVIEW AV N","id":"1792030"},{"neighborhood":"Cascade","localhood":"South Lake Union","type":"PARKING VIOLATIONS","lat":"47.619114","lng":"-122.33723","address":"1XX BLOCK OF TERRY AV N","id":"1792079"},{"neighborhood":"Cascade","localhood":"South Lake Union","type":"DISTURBANCES","lat":"47.619144","lng":"-122.34501","address":"1XX BLOCK OF 6 AV N","id":"1792098"},{"neighborhood":"Cascade","localhood":"South Lake Union","type":"TRAFFIC RELATED CALLS","lat":"47.61855","lng":"-122.3424","address":"DEXTER AV / DENNY WY","id":"1792145"},{"neighborhood":"Cascade","localhood":"South Lake Union","type":"THEFT","lat":"47.620243","lng":"-122.33042","address":"2XX BLOCK OF YALE AV N","id":"1792239"},{"neighborhood":"Cascade","localhood":"South Lake Union","type":"SUSPICIOUS CIRCUMSTANCES","lat":"47.618565","lng":"-122.34584","address":"5XX BLOCK OF DENNY WY","id":"1792312"},{"neighborhood":"Cascade","localhood":"South Lake Union","type":"HAZARDS","lat":"47.618572","lng":"-122.347626","address":"5 AV / DENNY WY","id":"1792308"},{"neighborhood":"Cascade","localhood":"South Lake Union","type":"TRAFFIC RELATED CALLS","lat":"47.618572","lng":"-122.347626","address":"DENNY WY / 5 AV","id":"1792340"}],"numIncidents":9,"percentage":2.528089887640449,"numVariance":6.965714285714286,"percentVariance":1.9566613162118778},{"name":"Lawton Park","incidents":[{"neighborhood":"Magnolia","localhood":"Lawton Park","type":"PROPERTY DAMAGE","lat":"47.65215","lng":"-122.38599","address":"23 AV W / W RUFFNER ST","id":"1792104"},{"neighborhood":"Magnolia","localhood":"Lawton Park","type":"SUSPICIOUS CIRCUMSTANCES","lat":"47.665318","lng":"-122.40992","address":"LAWTONWOOD RD / BAY TERRACE RD","id":"1792161"},{"neighborhood":"Magnolia","localhood":"Lawton Park","type":"TRAFFIC RELATED CALLS","lat":"47.665913","lng":"-122.40421","address":"33XX BLOCK OF W COMMODORE WY","id":"1792181"},{"neighborhood":"Magnolia","localhood":"Lawton Park","type":"NUISANCE, MISCHIEF COMPLAINTS","lat":"47.653065","lng":"-122.38464","address":"36XX BLOCK OF 22 AV W","id":"1792209"},{"neighborhood":"Magnolia","localhood":"Lawton Park","type":"PANIC ALACAD (FALSE)","lat":"47.665913","lng":"-122.40421","address":"33XX BLOCK OF W COMMODORE WY","id":"1792350"}],"numIncidents":5,"percentage":1.4044943820224718,"numVariance":2.9657142857142857,"percentVariance":0.8330658105939004},{"name":"Briarcliff","incidents":[{"neighborhood":"Magnolia","localhood":"Briarcliff","type":"PARKING VIOLATIONS","lat":"47.647713","lng":"-122.41195","address":"30XX BLOCK OF 43 AV W","id":"1792262"}],"numIncidents":1,"percentage":0.2808988764044944,"numVariance":-1.0342857142857143,"percentVariance":-0.290529695024077},{"name":"Southeast Magnolia","incidents":[],"numIncidents":0,"percentage":0,"numVariance":-2.0342857142857143,"percentVariance":-0.5714285714285714},{"name":"Madrona","incidents":[],"numIncidents":0,"percentage":0,"numVariance":-2.0342857142857143,"percentVariance":-0.5714285714285714},{"name":"Harrison - Denny-Blaine","incidents":[{"neighborhood":"Central Area","localhood":"Harrison - Denny-Blaine","type":"PARKING VIOLATIONS","lat":"47.623245","lng":"-122.295555","address":"28XX BLOCK OF E ARTHUR PL","id":"1792276"}],"numIncidents":1,"percentage":0.2808988764044944,"numVariance":-1.0342857142857143,"percentVariance":-0.290529695024077},{"name":"Minor","incidents":[{"neighborhood":"Central Area","localhood":"Minor","type":"CASUALTIES","lat":"47.60393","lng":"-122.31287","address":"2XX BLOCK OF 15 AV","id":"1792188"},{"neighborhood":"Central Area","localhood":"Minor","type":"TRAFFIC RELATED CALLS","lat":"47.61289","lng":"-122.316734","address":"12 AV / E UNION ST","id":"1792238"},{"neighborhood":"Central Area","localhood":"Minor","type":"PARKING VIOLATIONS","lat":"47.614113","lng":"-122.31212","address":"15XX BLOCK OF E PIKE ST","id":"1792295"}],"numIncidents":3,"percentage":0.8426966292134831,"numVariance":0.9657142857142857,"percentVariance":0.2712680577849117},{"name":"Leschi","incidents":[{"neighborhood":"Central Area","localhood":"Leschi","type":"DISTURBANCES","lat":"47.592747","lng":"-122.29549","address":"11XX BLOCK OF 29 AV S","id":"1792397"}],"numIncidents":1,"percentage":0.2808988764044944,"numVariance":-1.0342857142857143,"percentVariance":-0.290529695024077},{"name":"Mann","incidents":[{"neighborhood":"Central Area","localhood":"Mann","type":"TRAFFIC RELATED CALLS","lat":"47.612938","lng":"-122.296196","address":"M L KING JR WY / E UNION ST","id":"1792231"},{"neighborhood":"Central Area","localhood":"Mann","type":"AUTO THEFTS","lat":"47.618263","lng":"-122.29857","address":"18XX BLOCK OF 26 AV","id":"1792265"}],"numIncidents":2,"percentage":0.5617977528089888,"numVariance":-0.03428571428571425,"percentVariance":-0.009630818619582593},{"name":"Atlantic","incidents":[{"neighborhood":"Central Area","localhood":"Atlantic","type":"TRAFFIC RELATED CALLS","lat":"47.580994","lng":"-122.30017","address":"RAINIER AV S / S BAYVIEW ST","id":"1792083"},{"neighborhood":"Central Area","localhood":"Atlantic","type":"DISTURBANCES","lat":"47.597176","lng":"-122.30223","address":"5XX BLOCK OF 23 AV S","id":"1792175"},{"neighborhood":"Central Area","localhood":"Atlantic","type":"AUTO THEFTS","lat":"47.588375","lng":"-122.3026","address":"23 AV S / S MASSACHUSETTS ST","id":"1792278"},{"neighborhood":"Central Area","localhood":"Atlantic","type":"DISTURBANCES","lat":"47.59928","lng":"-122.30224","address":"23 AV S / S JACKSON ST","id":"1792327"}],"numIncidents":4,"percentage":1.1235955056179776,"numVariance":1.9657142857142857,"percentVariance":0.5521669341894062},{"name":"Pike-Market","incidents":[{"neighborhood":"Downtown","localhood":"Pike-Market","type":"LIQUOR VIOLATIONS","lat":"47.610317","lng":"-122.34364","address":"WESTERN AV / VIRGINIA ST","id":"1792011"},{"neighborhood":"Downtown","localhood":"Pike-Market","type":"LIQUOR VIOLATIONS","lat":"47.609814","lng":"-122.34288","address":"19XX BLOCK OF WESTERN AV","id":"1792028"},{"neighborhood":"Downtown","localhood":"Pike-Market","type":"LIQUOR VIOLATIONS","lat":"47.610317","lng":"-122.34364","address":"WESTERN AV / VIRGINIA ST","id":"1792069"},{"neighborhood":"Downtown","localhood":"Pike-Market","type":"TRESPASS","lat":"47.61062","lng":"-122.3409","address":"1XX BLOCK OF STEWART ST","id":"1792071"},{"neighborhood":"Downtown","localhood":"Pike-Market","type":"TRAFFIC RELATED CALLS","lat":"47.610275","lng":"-122.34135","address":"1 AV / STEWART ST","id":"1792095"},{"neighborhood":"Downtown","localhood":"Pike-Market","type":"DISTURBANCES","lat":"47.610275","lng":"-122.34135","address":"1 AV / STEWART ST","id":"1792097"},{"neighborhood":"Downtown","localhood":"Pike-Market","type":"CAR PROWL","lat":"47.609333","lng":"-122.34207","address":"WESTERN AV / PINE ST","id":"1792270"},{"neighborhood":"Downtown","localhood":"Pike-Market","type":"DISTURBANCES","lat":"47.609055","lng":"-122.33946","address":"1XX BLOCK OF PIKE ST","id":"1792253"},{"neighborhood":"Downtown","localhood":"Pike-Market","type":"LIQUOR VIOLATIONS","lat":"47.610317","lng":"-122.34364","address":"WESTERN AV / VIRGINIA ST","id":"1792363"},{"neighborhood":"Downtown","localhood":"Pike-Market","type":"SUSPICIOUS CIRCUMSTANCES","lat":"47.61079","lng":"-122.344124","address":"20XX BLOCK OF WESTERN AV","id":"1792318"},{"neighborhood":"Downtown","localhood":"Pike-Market","type":"TRAFFIC RELATED CALLS","lat":"47.609283","lng":"-122.338905","address":"2 AV / PIKE ST","id":"1792325"},{"neighborhood":"Downtown","localhood":"Pike-Market","type":"DISTURBANCES","lat":"47.609814","lng":"-122.34288","address":"19XX BLOCK OF WESTERN AV","id":"1792320"}],"numIncidents":12,"percentage":3.3707865168539324,"numVariance":9.965714285714286,"percentVariance":2.7993579454253608},{"name":"Belltown","incidents":[{"neighborhood":"Downtown","localhood":"Belltown","type":"DISTURBANCES","lat":"47.618275","lng":"-122.34742","address":"4XX BLOCK OF CEDAR ST","id":"1792034"},{"neighborhood":"Downtown","localhood":"Belltown","type":"DISTURBANCES","lat":"47.61713","lng":"-122.3489","address":"3 AV / CEDAR ST","id":"1792033"},{"neighborhood":"Downtown","localhood":"Belltown","type":"NARCOTICS COMPLAINTS","lat":"47.614216","lng":"-122.34198","address":"21XX BLOCK OF 4 AV","id":"1792068"},{"neighborhood":"Downtown","localhood":"Belltown","type":"ASSAULTS","lat":"47.61194","lng":"-122.34608","address":"WESTERN AV / BLANCHARD ST","id":"1792093"},{"neighborhood":"Downtown","localhood":"Belltown","type":"DISTURBANCES","lat":"47.618347","lng":"-122.348976","address":"4 AV / CLAY ST","id":"1792111"},{"neighborhood":"Downtown","localhood":"Belltown","type":"DISTURBANCES","lat":"47.611347","lng":"-122.3411","address":"19XX BLOCK OF 2 AV","id":"1792135"},{"neighborhood":"Downtown","localhood":"Belltown","type":"CAR PROWL","lat":"47.618595","lng":"-122.35415","address":"WARREN AV N / DENNY WY","id":"1792160"},{"neighborhood":"Downtown","localhood":"Belltown","type":"DISTURBANCES","lat":"47.618183","lng":"-122.33425","address":"20XX BLOCK OF FAIRVIEW AV","id":"1792178"},{"neighborhood":"Downtown","localhood":"Belltown","type":"TRAFFIC RELATED CALLS","lat":"47.615475","lng":"-122.3461","address":"3 AV / BATTERY ST","id":"1792177"},{"neighborhood":"Downtown","localhood":"Belltown","type":"DISTURBANCES","lat":"47.61222","lng":"-122.34457","address":"21XX BLOCK OF 1 AV","id":"1792176"},{"neighborhood":"Downtown","localhood":"Belltown","type":"NUISANCE, MISCHIEF COMPLAINTS","lat":"47.615086","lng":"-122.34742","address":"24XX BLOCK OF 2 AV","id":"1792182"},{"neighborhood":"Downtown","localhood":"Belltown","type":"DISTURBANCES","lat":"47.61752","lng":"-122.34757","address":"26XX BLOCK OF 4 AV","id":"1792193"},{"neighborhood":"Downtown","localhood":"Belltown","type":"DISTURBANCES","lat":"47.61222","lng":"-122.34457","address":"21XX BLOCK OF 1 AV","id":"1792197"},{"neighborhood":"Downtown","localhood":"Belltown","type":"DISTURBANCES","lat":"47.615524","lng":"-122.35015","address":"26XX BLOCK OF 1 AV","id":"1792200"},{"neighborhood":"Downtown","localhood":"Belltown","type":"DISTURBANCES","lat":"47.61752","lng":"-122.34757","address":"26XX BLOCK OF 4 AV","id":"1792199"},{"neighborhood":"Downtown","localhood":"Belltown","type":"DISTURBANCES","lat":"47.61497","lng":"-122.34921","address":"25XX BLOCK OF 1 AV","id":"1792223"},{"neighborhood":"Downtown","localhood":"Belltown","type":"THEFT","lat":"47.616055","lng":"-122.33617","address":"8XX BLOCK OF VIRGINIA ST","id":"1792279"},{"neighborhood":"Downtown","localhood":"Belltown","type":"DISTURBANCES","lat":"47.612663","lng":"-122.337395","address":"5 AV / OLIVE WY","id":"1792274"},{"neighborhood":"Downtown","localhood":"Belltown","type":"THEFT","lat":"47.618237","lng":"-122.329155","address":"18XX BLOCK OF EASTLAKE AV","id":"1792246"},{"neighborhood":"Downtown","localhood":"Belltown","type":"DISTURBANCES","lat":"47.618073","lng":"-122.3485","address":"27XX BLOCK OF 4 AV","id":"1792342"},{"neighborhood":"Downtown","localhood":"Belltown","type":"DISTURBANCES","lat":"47.614506","lng":"-122.33468","address":"18XX BLOCK OF 8 AV","id":"1792311"},{"neighborhood":"Downtown","localhood":"Belltown","type":"NARCOTICS COMPLAINTS","lat":"47.616055","lng":"-122.33617","address":"8XX BLOCK OF VIRGINIA ST","id":"1792298"},{"neighborhood":"Downtown","localhood":"Belltown","type":"NUISANCE, MISCHIEF COMPLAINTS","lat":"47.61271","lng":"-122.347374","address":"BELL ST / BATTERY ST TN ON RP","id":"1792299"},{"neighborhood":"Downtown","localhood":"Belltown","type":"NUISANCE, MISCHIEF COMPLAINTS","lat":"47.617966","lng":"-122.35031","address":"28XX BLOCK OF 3 AV","id":"1792297"},{"neighborhood":"Downtown","localhood":"Belltown","type":"TRAFFIC RELATED CALLS","lat":"47.617905","lng":"-122.34625","address":"5 AV / VINE ST","id":"1792353"},{"neighborhood":"Downtown","localhood":"Belltown","type":"CAR PROWL","lat":"47.612396","lng":"-122.3409","address":"3 AV / VIRGINIA ST","id":"1792322"}],"numIncidents":26,"percentage":7.303370786516854,"numVariance":23.965714285714284,"percentVariance":6.731942215088282},{"name":"International District","incidents":[{"neighborhood":"Downtown","localhood":"International District","type":"DISTURBANCES","lat":"47.598354","lng":"-122.327675","address":"5 AV S / S KING ST","id":"1792036"},{"neighborhood":"Downtown","localhood":"International District","type":"DISTURBANCES","lat":"47.59919","lng":"-122.32506","address":"MAYNARD AV S / S JACKSON ST","id":"1792110"},{"neighborhood":"Downtown","localhood":"International District","type":"DISTURBANCES","lat":"47.59835","lng":"-122.32473","address":"6XX BLOCK OF S KING ST","id":"1792201"},{"neighborhood":"Downtown","localhood":"International District","type":"THEFT","lat":"47.596676","lng":"-122.32637","address":"6 AV S / S LANE ST","id":"1792360"},{"neighborhood":"Downtown","localhood":"International District","type":"TRESPASS","lat":"47.599194","lng":"-122.32571","address":"6XX BLOCK OF S JACKSON ST","id":"1792343"},{"neighborhood":"Downtown","localhood":"International District","type":"THEFT","lat":"47.596657","lng":"-122.32768","address":"6XX BLOCK OF 5 AV S","id":"1792338"},{"neighborhood":"Downtown","localhood":"International District","type":"NARCOTICS COMPLAINTS","lat":"47.598347","lng":"-122.32441","address":"S KING ST / MAYNARD AL S","id":"1792302"}],"numIncidents":7,"percentage":1.9662921348314606,"numVariance":4.965714285714286,"percentVariance":1.3948635634028892},{"name":"Central Business District","incidents":[{"neighborhood":"Downtown","localhood":"Central Business District","type":"THEFT","lat":"47.61018","lng":"-122.33512","address":"14XX BLOCK OF 5 AV","id":"1792043"},{"neighborhood":"Downtown","localhood":"Central Business District","type":"THREATS, HARASSMENT","lat":"47.61114","lng":"-122.334465","address":"6 AV / PIKE ST","id":"1792053"},{"neighborhood":"Downtown","localhood":"Central Business District","type":"CAR PROWL","lat":"47.61237","lng":"-122.334816","address":"6XX BLOCK OF PINE ST","id":"1792044"},{"neighborhood":"Downtown","localhood":"Central Business District","type":"SUSPICIOUS CIRCUMSTANCES","lat":"47.612103","lng":"-122.33381","address":"15XX BLOCK OF 7 AV","id":"1792066"},{"neighborhood":"Downtown","localhood":"Central Business District","type":"SUSPICIOUS CIRCUMSTANCES","lat":"47.609684","lng":"-122.33467","address":"5 AV / UNION ST","id":"1792082"},{"neighborhood":"Downtown","localhood":"Central Business District","type":"TRAFFIC RELATED CALLS","lat":"47.610676","lng":"-122.33558","address":"5 AV / PIKE ST","id":"1792138"},{"neighborhood":"Downtown","localhood":"Central Business District","type":"LIQUOR VIOLATIONS","lat":"47.60975","lng":"-122.33779","address":"3 AV / PIKE ST","id":"1792196"},{"neighborhood":"Downtown","localhood":"Central Business District","type":"TRAFFIC RELATED CALLS","lat":"47.609253","lng":"-122.33734","address":"14XX BLOCK OF 3 AV","id":"1792227"},{"neighborhood":"Downtown","localhood":"Central Business District","type":"TRAFFIC RELATED CALLS","lat":"47.607067","lng":"-122.33764","address":"1XX BLOCK OF UNIVERSITY ST","id":"1792229"},{"neighborhood":"Downtown","localhood":"Central Business District","type":"LIQUOR VIOLATIONS","lat":"47.610744","lng":"-122.3387","address":"3 AV / PINE ST","id":"1792226"},{"neighborhood":"Downtown","localhood":"Central Business District","type":"BURGLARY ALACAD (FALSE)","lat":"47.606693","lng":"-122.335","address":"11XX BLOCK OF 3 AV","id":"1792266"},{"neighborhood":"Downtown","localhood":"Central Business District","type":"NUISANCE, MISCHIEF COMPLAINTS","lat":"47.609516","lng":"-122.33835","address":"2XX BLOCK OF PIKE ST","id":"1792247"},{"neighborhood":"Downtown","localhood":"Central Business District","type":"PARKING VIOLATIONS","lat":"47.60773","lng":"-122.33933","address":"XX BLOCK OF UNION ST","id":"1792258"},{"neighborhood":"Downtown","localhood":"Central Business District","type":"PARKING VIOLATIONS","lat":"47.61237","lng":"-122.334816","address":"6XX BLOCK OF PINE ST","id":"1792355"},{"neighborhood":"Downtown","localhood":"Central Business District","type":"PARKING VIOLATIONS","lat":"47.61167","lng":"-122.33649","address":"5 AV / PINE ST","id":"1792335"},{"neighborhood":"Downtown","localhood":"Central Business District","type":"LIQUOR VIOLATIONS","lat":"47.60975","lng":"-122.33779","address":"3 AV / PIKE ST","id":"1792315"},{"neighborhood":"Downtown","localhood":"Central Business District","type":"LIQUOR VIOLATIONS","lat":"47.60975","lng":"-122.33779","address":"3 AV / PIKE ST","id":"1792391"}],"numIncidents":17,"percentage":4.775280898876404,"numVariance":14.965714285714286,"percentVariance":4.203852327447833},{"name":"First Hill","incidents":[{"neighborhood":"Downtown","localhood":"First Hill","type":"DISTURBANCES","lat":"47.61408","lng":"-122.320114","address":"9XX BLOCK OF E PIKE ST","id":"1792029"},{"neighborhood":"Downtown","localhood":"First Hill","type":"DISTURBANCES","lat":"47.613525","lng":"-122.322105","address":"14XX BLOCK OF HARVARD AV","id":"1792059"},{"neighborhood":"Downtown","localhood":"First Hill","type":"DISTURBANCES","lat":"47.609802","lng":"-122.324036","address":"MINOR AV / MADISON ST","id":"1792064"},{"neighborhood":"Downtown","localhood":"First Hill","type":"SUSPICIOUS CIRCUMSTANCES","lat":"47.61296","lng":"-122.32076","address":"BROADWAY / E UNION ST","id":"1792087"},{"neighborhood":"Downtown","localhood":"First Hill","type":"DISTURBANCES","lat":"47.612915","lng":"-122.31743","address":"11XX BLOCK OF E UNION ST","id":"1792184"},{"neighborhood":"Downtown","localhood":"First Hill","type":"GUN CALLS","lat":"47.613518","lng":"-122.32077","address":"14XX BLOCK OF BROADWAY","id":"1792211"},{"neighborhood":"Downtown","localhood":"First Hill","type":"SUSPICIOUS CIRCUMSTANCES","lat":"47.60652","lng":"-122.31678","address":"5XX BLOCK OF 12 AV","id":"1792212"},{"neighborhood":"Downtown","localhood":"First Hill","type":"THEFT","lat":"47.60806","lng":"-122.31678","address":"E CHERRY ST / 12 AV","id":"1792286"},{"neighborhood":"Downtown","localhood":"First Hill","type":"DISTURBANCES","lat":"47.61007","lng":"-122.32811","address":"9XX BLOCK OF SENECA ST","id":"1792261"},{"neighborhood":"Downtown","localhood":"First Hill","type":"LIQUOR VIOLATIONS","lat":"47.60982","lng":"-122.32635","address":"10XX BLOCK OF SPRING ST","id":"1792303"},{"neighborhood":"Downtown","localhood":"First Hill","type":"THEFT","lat":"47.613518","lng":"-122.32077","address":"14XX BLOCK OF BROADWAY","id":"1792293"},{"neighborhood":"Downtown","localhood":"First Hill","type":"BURGLARY ALACAD (FALSE)","lat":"47.610874","lng":"-122.325005","address":"11XX BLOCK OF MINOR AV","id":"1792319"}],"numIncidents":12,"percentage":3.3707865168539324,"numVariance":9.965714285714286,"percentVariance":2.7993579454253608},{"name":"Yesler Terrace","incidents":[{"neighborhood":"Downtown","localhood":"Yesler Terrace","type":"NOISE DISTURBANCE","lat":"47.605705","lng":"-122.31941","address":"4XX BLOCK OF 10 AV","id":"1792080"}],"numIncidents":1,"percentage":0.2808988764044944,"numVariance":-1.0342857142857143,"percentVariance":-0.290529695024077},{"name":"Pioneer Square","incidents":[{"neighborhood":"Downtown","localhood":"Pioneer Square","type":"CRISIS CALL","lat":"47.600464","lng":"-122.33081","address":"3XX BLOCK OF 2 AV S","id":"1792045"},{"neighborhood":"Downtown","localhood":"Pioneer Square","type":"LIQUOR VIOLATIONS","lat":"47.600464","lng":"-122.33081","address":"3XX BLOCK OF 2 AV S","id":"1792032"},{"neighborhood":"Downtown","localhood":"Pioneer Square","type":"LIQUOR VIOLATIONS","lat":"47.600464","lng":"-122.33081","address":"3XX BLOCK OF 2 AV S","id":"1792058"},{"neighborhood":"Downtown","localhood":"Pioneer Square","type":"LIQUOR VIOLATIONS","lat":"47.602413","lng":"-122.331085","address":"5XX BLOCK OF 3 AV","id":"1792075"},{"neighborhood":"Downtown","localhood":"Pioneer Square","type":"LIQUOR VIOLATIONS","lat":"47.60323","lng":"-122.3303","address":"4 AV / JAMES ST","id":"1792074"},{"neighborhood":"Downtown","localhood":"Pioneer Square","type":"DISTURBANCES","lat":"47.60004","lng":"-122.33157","address":"2 AV S / S MAIN ST","id":"1792114"},{"neighborhood":"Downtown","localhood":"Pioneer Square","type":"DISTURBANCES","lat":"47.602787","lng":"-122.333725","address":"1XX BLOCK OF CHERRY ST","id":"1792107"},{"neighborhood":"Downtown","localhood":"Pioneer Square","type":"LIQUOR VIOLATIONS","lat":"47.600464","lng":"-122.33081","address":"3XX BLOCK OF 2 AV S","id":"1792131"},{"neighborhood":"Downtown","localhood":"Pioneer Square","type":"LIQUOR VIOLATIONS","lat":"47.600464","lng":"-122.33081","address":"3XX BLOCK OF 2 AV S","id":"1792164"},{"neighborhood":"Downtown","localhood":"Pioneer Square","type":"LIQUOR VIOLATIONS","lat":"47.600464","lng":"-122.33081","address":"3XX BLOCK OF 2 AV S","id":"1792189"},{"neighborhood":"Downtown","localhood":"Pioneer Square","type":"ASSAULTS","lat":"47.60215","lng":"-122.334175","address":"6XX BLOCK OF 1 AV","id":"1792194"},{"neighborhood":"Downtown","localhood":"Pioneer Square","type":"THEFT","lat":"47.603016","lng":"-122.333176","address":"2 AV / CHERRY ST","id":"1792222"},{"neighborhood":"Downtown","localhood":"Pioneer Square","type":"TRESPASS","lat":"47.60266","lng":"-122.33285","address":"6XX BLOCK OF 2 AV","id":"1792280"},{"neighborhood":"Downtown","localhood":"Pioneer Square","type":"TRAFFIC RELATED CALLS","lat":"47.592396","lng":"-122.33629","address":"ALASKAN WY VI SB / S ROYAL BROUGHAM WY","id":"1792260"},{"neighborhood":"Downtown","localhood":"Pioneer Square","type":"NUISANCE, MISCHIEF COMPLAINTS","lat":"47.601887","lng":"-122.33051","address":"4XX BLOCK OF 3 AV","id":"1792252"},{"neighborhood":"Downtown","localhood":"Pioneer Square","type":"NARCOTICS COMPLAINTS","lat":"47.60004","lng":"-122.33157","address":"2 AV S / S MAIN ST","id":"1792329"},{"neighborhood":"Downtown","localhood":"Pioneer Square","type":"PROPERTY - MISSING, FOUND","lat":"47.59829","lng":"-122.332886","address":"S KING ST / OCCIDENTAL AV S","id":"1792304"},{"neighborhood":"Downtown","localhood":"Pioneer Square","type":"LIQUOR VIOLATIONS","lat":"47.600872","lng":"-122.328964","address":"PREFONTAINE PL S / 4 AV S","id":"1792301"},{"neighborhood":"Downtown","localhood":"Pioneer Square","type":"SUSPICIOUS CIRCUMSTANCES","lat":"47.60048","lng":"-122.33418","address":"2XX BLOCK OF 1 AV S","id":"1792296"},{"neighborhood":"Downtown","localhood":"Pioneer Square","type":"LIQUOR VIOLATIONS","lat":"47.60215","lng":"-122.334175","address":"6XX BLOCK OF 1 AV","id":"1792398"},{"neighborhood":"Downtown","localhood":"Pioneer Square","type":"DISTURBANCES","lat":"47.59798","lng":"-122.32897","address":"5XX BLOCK OF 4 AV S","id":"1792400"},{"neighborhood":"Downtown","localhood":"Pioneer Square","type":"DISTURBANCES","lat":"47.602554","lng":"-122.33428","address":"1 AV / CHERRY ST","id":"1792393"},{"neighborhood":"Downtown","localhood":"Pioneer Square","type":"SUSPICIOUS CIRCUMSTANCES","lat":"47.601723","lng":"-122.33418","address":"1 AV / YESLER WY","id":"1792382"}],"numIncidents":23,"percentage":6.460674157303371,"numVariance":20.965714285714284,"percentVariance":5.8892455858748},{"name":"Interbay","incidents":[{"neighborhood":"Interbay","localhood":null,"type":"SUSPICIOUS CIRCUMSTANCES","lat":"47.649464","lng":"-122.37634","address":"32XX BLOCK OF 15 AV W","id":"1792105"}],"numIncidents":1,"percentage":0.2808988764044944,"numVariance":-1.0342857142857143,"percentVariance":-0.290529695024077},{"name":"Seaview","incidents":[{"neighborhood":"West Seattle","localhood":"Seaview","type":"BURGLARY ALACAD (FALSE)","lat":"47.549397","lng":"-122.387115","address":"59XX BLOCK OF CALIFORNIA AV SW","id":"1792210"}],"numIncidents":1,"percentage":0.2808988764044944,"numVariance":-1.0342857142857143,"percentVariance":-0.290529695024077},{"name":"Gatewood","incidents":[{"neighborhood":"West Seattle","localhood":"Gatewood","type":"DISTURBANCES","lat":"47.543427","lng":"-122.38188","address":"66XX BLOCK OF 39 AV SW","id":"1792100"},{"neighborhood":"West Seattle","localhood":"Gatewood","type":"SUSPICIOUS CIRCUMSTANCES","lat":"47.544865","lng":"-122.38648","address":"42XX BLOCK OF SW MORGAN ST","id":"1792263"}],"numIncidents":2,"percentage":0.5617977528089888,"numVariance":-0.03428571428571425,"percentVariance":-0.009630818619582593},{"name":"Arbor Heights","incidents":[],"numIncidents":0,"percentage":0,"numVariance":-2.0342857142857143,"percentVariance":-0.5714285714285714},{"name":"Alki","incidents":[{"neighborhood":"West Seattle","localhood":"Alki","type":"TRAFFIC RELATED CALLS","lat":"47.58006","lng":"-122.40801","address":"59 AV SW / ALKI AV SW","id":"1792214"},{"neighborhood":"West Seattle","localhood":"Alki","type":"BURGLARY ALACAD (FALSE)","lat":"47.578743","lng":"-122.40537","address":"27XX BLOCK OF 57 AV SW","id":"1792220"}],"numIncidents":2,"percentage":0.5617977528089888,"numVariance":-0.03428571428571425,"percentVariance":-0.009630818619582593},{"name":"North Admiral","incidents":[{"neighborhood":"West Seattle","localhood":"North Admiral","type":"DISTURBANCES","lat":"47.572945","lng":"-122.38943","address":"34XX BLOCK OF 45 AV SW","id":"1792186"},{"neighborhood":"West Seattle","localhood":"North Admiral","type":"BURGLARY ALACAD (FALSE)","lat":"47.57259","lng":"-122.38567","address":"34XX BLOCK OF 42 AV SW","id":"1792349"}],"numIncidents":2,"percentage":0.5617977528089888,"numVariance":-0.03428571428571425,"percentVariance":-0.009630818619582593},{"name":"Fairmount Park","incidents":[{"neighborhood":"West Seattle","localhood":"Fairmount Park","type":"DISTURBANCES","lat":"47.54636","lng":"-122.3872","address":"63XX BLOCK OF CALIFORNIA AV SW","id":"1792192"},{"neighborhood":"West Seattle","localhood":"Fairmount Park","type":"DISTURBANCES","lat":"47.564075","lng":"-122.376816","address":"35XX BLOCK OF SW AVALON WY","id":"1792324"}],"numIncidents":2,"percentage":0.5617977528089888,"numVariance":-0.03428571428571425,"percentVariance":-0.009630818619582593},{"name":"Genesee","incidents":[{"neighborhood":"West Seattle","localhood":"Genesee","type":"DISTURBANCES","lat":"47.56472","lng":"-122.38677","address":"CALIFORNIA AV SW / SW GENESEE ST","id":"1792187"},{"neighborhood":"West Seattle","localhood":"Genesee","type":"SUSPICIOUS CIRCUMSTANCES","lat":"47.561104","lng":"-122.38678","address":"CALIFORNIA AV SW / SW ALASKA ST","id":"1792216"},{"neighborhood":"West Seattle","localhood":"Genesee","type":"SUSPICIOUS CIRCUMSTANCES","lat":"47.566486","lng":"-122.37619","address":"35 AV SW / SW DAKOTA ST","id":"1792243"},{"neighborhood":"West Seattle","localhood":"Genesee","type":"TRAFFIC RELATED CALLS","lat":"47.564777","lng":"-122.39346","address":"48 AV SW / SW GENESEE ST","id":"1792306"}],"numIncidents":4,"percentage":1.1235955056179776,"numVariance":1.9657142857142857,"percentVariance":0.5521669341894062},{"name":"Fauntleroy","incidents":[{"neighborhood":"West Seattle","localhood":"Fauntleroy","type":"DISTURBANCES","lat":"47.527744","lng":"-122.39159","address":"84XX BLOCK OF 46 AV SW","id":"1792094"},{"neighborhood":"West Seattle","localhood":"Fauntleroy","type":"TRESPASS","lat":"47.525826","lng":"-122.39277","address":"86XX BLOCK OF FAUNTLEROY WY SW","id":"1792205"}],"numIncidents":2,"percentage":0.5617977528089888,"numVariance":-0.03428571428571425,"percentVariance":-0.009630818619582593},{"name":"North Beacon Hill","incidents":[{"neighborhood":"Beacon Hill","localhood":"North Beacon Hill","type":"PARKING VIOLATIONS","lat":"47.577324","lng":"-122.31737","address":"29XX BLOCK OF 12 AV S","id":"1792077"},{"neighborhood":"Beacon Hill","localhood":"North Beacon Hill","type":"HAZARDS","lat":"47.569164","lng":"-122.31343","address":"15 AV S / S COLUMBIAN WY","id":"1792092"},{"neighborhood":"Beacon Hill","localhood":"North Beacon Hill","type":"TRESPASS","lat":"47.58502","lng":"-122.30326","address":"20XX BLOCK OF RAINIER AV S","id":"1792300"}],"numIncidents":3,"percentage":0.8426966292134831,"numVariance":0.9657142857142857,"percentVariance":0.2712680577849117},{"name":"Mid-Beacon Hill","incidents":[{"neighborhood":"Beacon Hill","localhood":"Mid-Beacon Hill","type":"SUSPICIOUS CIRCUMSTANCES","lat":"47.55059","lng":"-122.312325","address":"58XX BLOCK OF 16 AV S","id":"1792017"},{"neighborhood":"Beacon Hill","localhood":"Mid-Beacon Hill","type":"SUSPICIOUS CIRCUMSTANCES","lat":"47.561653","lng":"-122.3105","address":"S COLUMBIAN WY / S SNOQUALMIE ST","id":"1792152"}],"numIncidents":2,"percentage":0.5617977528089888,"numVariance":-0.03428571428571425,"percentVariance":-0.009630818619582593},{"name":"South Beacon Hill","incidents":[{"neighborhood":"Beacon Hill","localhood":"South Beacon Hill","type":"PROPERTY DAMAGE","lat":"47.538914","lng":"-122.293755","address":"30XX BLOCK OF S MYRTLE ST","id":"1792055"},{"neighborhood":"Beacon Hill","localhood":"South Beacon Hill","type":"TRAFFIC RELATED CALLS","lat":"47.54698","lng":"-122.30794","address":"S GRAHAM ST / SWIFT AV S","id":"1792121"},{"neighborhood":"Beacon Hill","localhood":"South Beacon Hill","type":"SUSPICIOUS CIRCUMSTANCES","lat":"47.529675","lng":"-122.28425","address":"38XX BLOCK OF S ROSE ST","id":"1792174"}],"numIncidents":3,"percentage":0.8426966292134831,"numVariance":0.9657142857142857,"percentVariance":0.2712680577849117},{"name":"Holly Park","incidents":[{"neighborhood":"Beacon Hill","localhood":"Holly Park","type":"SUSPICIOUS CIRCUMSTANCES","lat":"47.54049","lng":"-122.28479","address":"69XX BLOCK OF 38 AV S","id":"1792230"}],"numIncidents":1,"percentage":0.2808988764044944,"numVariance":-1.0342857142857143,"percentVariance":-0.290529695024077},{"name":"Brighton","incidents":[{"neighborhood":"Rainier Valley","localhood":"Brighton","type":"HAZARDS","lat":"47.545788","lng":"-122.27567","address":"63XX BLOCK OF RAINIER AV S","id":"1792078"},{"neighborhood":"Rainier Valley","localhood":"Brighton","type":"DISTURBANCES","lat":"47.538277","lng":"-122.270584","address":"RAINIER AV S / S ORCHARD ST","id":"1792124"},{"neighborhood":"Rainier Valley","localhood":"Brighton","type":"DISTURBANCES","lat":"47.537056","lng":"-122.27871","address":"43XX BLOCK OF S OTHELLO ST","id":"1792156"},{"neighborhood":"Rainier Valley","localhood":"Brighton","type":"ASSAULTS","lat":"47.537052","lng":"-122.28006","address":"42XX BLOCK OF S OTHELLO ST","id":"1792348"}],"numIncidents":4,"percentage":1.1235955056179776,"numVariance":1.9657142857142857,"percentVariance":0.5521669341894062},{"name":"Dunlap","incidents":[{"neighborhood":"Rainier Valley","localhood":"Dunlap","type":"THEFT","lat":"47.519974","lng":"-122.26393","address":"94XX BLOCK OF RAINIER AV S","id":"1792084"},{"neighborhood":"Rainier Valley","localhood":"Dunlap","type":"NOISE DISTURBANCE","lat":"47.53158","lng":"-122.26999","address":"S KENYON ST / RAINIER AV S","id":"1792147"},{"neighborhood":"Rainier Valley","localhood":"Dunlap","type":"DISTURBANCES","lat":"47.527706","lng":"-122.26756","address":"CLOVERDALE PL S / WABASH AV S","id":"1792408"},{"neighborhood":"Rainier Valley","localhood":"Dunlap","type":"SUSPICIOUS CIRCUMSTANCES","lat":"47.527912","lng":"-122.26999","address":"S THISTLE ST / RAINIER PL S","id":"1792373"}],"numIncidents":4,"percentage":1.1235955056179776,"numVariance":1.9657142857142857,"percentVariance":0.5521669341894062},{"name":"Rainier Beach","incidents":[],"numIncidents":0,"percentage":0,"numVariance":-2.0342857142857143,"percentVariance":-0.5714285714285714},{"name":"Rainier View","incidents":[{"neighborhood":"Rainier Valley","localhood":"Rainier View","type":"DISTURBANCES","lat":"47.50366","lng":"-122.251625","address":"S FOUNTAIN ST / RENTON AV S","id":"1792351"}],"numIncidents":1,"percentage":0.2808988764044944,"numVariance":-1.0342857142857143,"percentVariance":-0.290529695024077},{"name":"Mount Baker","incidents":[{"neighborhood":"Rainier Valley","localhood":"Mount Baker","type":"DISTURBANCES","lat":"47.58857","lng":"-122.29148","address":"15XX BLOCK OF 32 AV S","id":"1792198"}],"numIncidents":1,"percentage":0.2808988764044944,"numVariance":-1.0342857142857143,"percentVariance":-0.290529695024077},{"name":"Columbia City","incidents":[{"neighborhood":"Rainier Valley","localhood":"Columbia City","type":"DISTURBANCES","lat":"47.564083","lng":"-122.2795","address":"43 AV S / S GENESEE ST","id":"1792109"},{"neighborhood":"Rainier Valley","localhood":"Columbia City","type":"PARKING VIOLATIONS","lat":"47.56496","lng":"-122.28842","address":"42XX BLOCK OF RAINIER AV S","id":"1792190"},{"neighborhood":"Rainier Valley","localhood":"Columbia City","type":"SUSPICIOUS CIRCUMSTANCES","lat":"47.56618","lng":"-122.29737","address":"29XX BLOCK OF S DAKOTA ST","id":"1792225"},{"neighborhood":"Rainier Valley","localhood":"Columbia City","type":"PROPERTY DAMAGE","lat":"47.55946","lng":"-122.2842","address":"38XX BLOCK OF S ANGELINE ST","id":"1792234"},{"neighborhood":"Rainier Valley","localhood":"Columbia City","type":"TRAFFIC RELATED CALLS","lat":"47.546024","lng":"-122.27599","address":"RAINIER AV S / S GRAHAM ST","id":"1792290"},{"neighborhood":"Rainier Valley","localhood":"Columbia City","type":"SUSPICIOUS CIRCUMSTANCES","lat":"47.559605","lng":"-122.30466","address":"S COLUMBIAN WY / BEACON AV S","id":"1792249"}],"numIncidents":6,"percentage":1.6853932584269662,"numVariance":3.9657142857142857,"percentVariance":1.1139646869983948},{"name":"Highland Park","incidents":[{"neighborhood":"Delridge","localhood":"Highland Park","type":"DISTURBANCES","lat":"47.520428","lng":"-122.33603","address":"92XX BLOCK OF 2 AV SW","id":"1792140"},{"neighborhood":"Delridge","localhood":"Highland Park","type":"TRESPASS","lat":"47.518673","lng":"-122.333275","address":"95XX BLOCK OF MYERS WY S","id":"1792345"}],"numIncidents":2,"percentage":0.5617977528089888,"numVariance":-0.03428571428571425,"percentVariance":-0.009630818619582593},{"name":"North Delridge","incidents":[{"neighborhood":"Delridge","localhood":"North Delridge","type":"DISTURBANCES","lat":"47.564075","lng":"-122.3742","address":"32XX BLOCK OF SW AVALON WY","id":"1792127"},{"neighborhood":"Delridge","localhood":"North Delridge","type":"BURGLARY ALACAD (FALSE)","lat":"47.561066","lng":"-122.353195","address":"47XX BLOCK OF 14 AV SW","id":"1792347"},{"neighborhood":"Delridge","localhood":"North Delridge","type":"THEFT","lat":"47.56581","lng":"-122.36546","address":"42XX BLOCK OF 26 AV SW","id":"1792305"}],"numIncidents":3,"percentage":0.8426966292134831,"numVariance":0.9657142857142857,"percentVariance":0.2712680577849117},{"name":"Riverview","incidents":[{"neighborhood":"Delridge","localhood":"Riverview","type":"BURGLARY ALACAD (FALSE)","lat":"47.549038","lng":"-122.35596","address":"59XX BLOCK OF 17 AV SW","id":"1792267"}],"numIncidents":1,"percentage":0.2808988764044944,"numVariance":-1.0342857142857143,"percentVariance":-0.290529695024077},{"name":"High Point","incidents":[{"neighborhood":"Delridge","localhood":"High Point","type":"DISTURBANCES","lat":"47.545593","lng":"-122.37642","address":"63XX BLOCK OF 35 AV SW","id":"1792172"},{"neighborhood":"Delridge","localhood":"High Point","type":"DISTURBANCES","lat":"47.55282","lng":"-122.362976","address":"54XX BLOCK OF DELRIDGE WY SW","id":"1792136"},{"neighborhood":"Delridge","localhood":"High Point","type":"CRISIS CALL","lat":"47.55282","lng":"-122.362976","address":"54XX BLOCK OF DELRIDGE WY SW","id":"1792356"}],"numIncidents":3,"percentage":0.8426966292134831,"numVariance":0.9657142857142857,"percentVariance":0.2712680577849117},{"name":"South Delridge","incidents":[{"neighborhood":"Delridge","localhood":"South Delridge","type":"SUSPICIOUS CIRCUMSTANCES","lat":"47.537952","lng":"-122.36109","address":"DELRIDGE WY SW / SW ORCHARD ST","id":"1792134"},{"neighborhood":"Delridge","localhood":"South Delridge","type":"DISTURBANCES","lat":"47.52378","lng":"-122.35913","address":"88XX BLOCK OF 20 AV SW","id":"1792148"},{"neighborhood":"Delridge","localhood":"South Delridge","type":"TRAFFIC RELATED CALLS","lat":"47.526485","lng":"-122.36047","address":"DELRIDGE WY SW / SW CLOVERDALE ST","id":"1792195"},{"neighborhood":"Delridge","localhood":"South Delridge","type":"BURGLARY ALACAD (FALSE)","lat":"47.532776","lng":"-122.35504","address":"77XX BLOCK OF 16 AV SW","id":"1792203"},{"neighborhood":"Delridge","localhood":"South Delridge","type":"DISTURBANCES","lat":"47.523994","lng":"-122.36048","address":"88XX BLOCK OF DELRIDGE WY SW","id":"1792395"}],"numIncidents":5,"percentage":1.4044943820224718,"numVariance":2.9657142857142857,"percentVariance":0.8330658105939004},{"name":"Roxhill","incidents":[{"neighborhood":"Delridge","localhood":"Roxhill","type":"SUSPICIOUS CIRCUMSTANCES","lat":"47.52738","lng":"-122.36586","address":"84XX BLOCK OF 26 AV SW","id":"1792287"},{"neighborhood":"Delridge","localhood":"Roxhill","type":"RESIDENTIAL BURGLARIES","lat":"47.52468","lng":"-122.365204","address":"25XX BLOCK OF SW TRENTON ST","id":"1792361"}],"numIncidents":2,"percentage":0.5617977528089888,"numVariance":-0.03428571428571425,"percentVariance":-0.009630818619582593},{"name":"Seward Park","incidents":[{"neighborhood":"Seward Park","localhood":null,"type":"TRAFFIC RELATED CALLS","lat":"47.546066","lng":"-122.26858","address":"S GRAHAM ST / 51 PL S","id":"1792070"},{"neighborhood":"Seward Park","localhood":null,"type":"BURGLARY ALACAD (FALSE)","lat":"47.551884","lng":"-122.268776","address":"51XX BLOCK OF S FINDLAY ST","id":"1792264"}],"numIncidents":2,"percentage":0.5617977528089888,"numVariance":-0.03428571428571425,"percentVariance":-0.009630818619582593},{"name":"Portage Bay","incidents":[{"neighborhood":"Capitol Hill","localhood":"Portage Bay","type":"DISTURBANCES","lat":"47.650383","lng":"-122.3202","address":"32XX BLOCK OF FUHRMAN AV E","id":"1792050"}],"numIncidents":1,"percentage":0.2808988764044944,"numVariance":-1.0342857142857143,"percentVariance":-0.290529695024077},{"name":"Montlake","incidents":[{"neighborhood":"Capitol Hill","localhood":"Montlake","type":"RESIDENTIAL BURGLARIES","lat":"47.63957","lng":"-122.31304","address":"14XX BLOCK OF E LYNN ST","id":"1792146"},{"neighborhood":"Capitol Hill","localhood":"Montlake","type":"DISTURBANCES","lat":"47.645554","lng":"-122.30461","address":"E HAMLIN ST / MONTLAKE BV E","id":"1792291"}],"numIncidents":2,"percentage":0.5617977528089888,"numVariance":-0.03428571428571425,"percentVariance":-0.009630818619582593},{"name":"Madison Park","incidents":[{"neighborhood":"Capitol Hill","localhood":"Madison Park","type":"PROPERTY - MISSING, FOUND","lat":"47.63395","lng":"-122.27715","address":"16XX BLOCK OF 43 AV E","id":"1792128"},{"neighborhood":"Capitol Hill","localhood":"Madison Park","type":"TRAFFIC RELATED CALLS","lat":"47.627518","lng":"-122.29022","address":"32XX BLOCK OF E MADISON ST","id":"1792173"}],"numIncidents":2,"percentage":0.5617977528089888,"numVariance":-0.03428571428571425,"percentVariance":-0.009630818619582593},{"name":"Broadway","incidents":[{"neighborhood":"Capitol Hill","localhood":"Broadway","type":"DISTURBANCES","lat":"47.61523","lng":"-122.321465","address":"8XX BLOCK OF E PINE ST","id":"1792013"},{"neighborhood":"Capitol Hill","localhood":"Broadway","type":"TRAFFIC RELATED CALLS","lat":"47.614075","lng":"-122.32078","address":"BROADWAY / E PIKE ST","id":"1792049"},{"neighborhood":"Capitol Hill","localhood":"Broadway","type":"DISTURBANCES","lat":"47.615234","lng":"-122.3208","address":"E PINE ST / BROADWAY","id":"1792062"},{"neighborhood":"Capitol Hill","localhood":"Broadway","type":"DISTURBANCES","lat":"47.621998","lng":"-122.32308","address":"E HARRISON ST / BOYLSTON AV E","id":"1792067"},{"neighborhood":"Capitol Hill","localhood":"Broadway","type":"LIQUOR VIOLATIONS","lat":"47.61524","lng":"-122.320404","address":"9XX BLOCK OF E PINE ST","id":"1792061"},{"neighborhood":"Capitol Hill","localhood":"Broadway","type":"LIQUOR VIOLATIONS","lat":"47.61642","lng":"-122.31818","address":"11 AV / E OLIVE ST","id":"1792081"},{"neighborhood":"Capitol Hill","localhood":"Broadway","type":"DISTURBANCES","lat":"47.61409","lng":"-122.318794","address":"10XX BLOCK OF E PIKE ST","id":"1792085"},{"neighborhood":"Capitol Hill","localhood":"Broadway","type":"TRAFFIC RELATED CALLS","lat":"47.61641","lng":"-122.32004","address":"16XX BLOCK OF NAGLE PL","id":"1792103"},{"neighborhood":"Capitol Hill","localhood":"Broadway","type":"DISTURBANCES","lat":"47.61409","lng":"-122.318794","address":"10XX BLOCK OF E PIKE ST","id":"1792112"},{"neighborhood":"Capitol Hill","localhood":"Broadway","type":"TRAFFIC RELATED CALLS","lat":"47.6237","lng":"-122.32093","address":"5XX BLOCK OF BROADWAY E","id":"1792108"},{"neighborhood":"Capitol Hill","localhood":"Broadway","type":"LIQUOR VIOLATIONS","lat":"47.614655","lng":"-122.32079","address":"15XX BLOCK OF BROADWAY","id":"1792120"},{"neighborhood":"Capitol Hill","localhood":"Broadway","type":"DISTURBANCES","lat":"47.61522","lng":"-122.32553","address":"E PINE ST / SUMMIT AV","id":"1792141"},{"neighborhood":"Capitol Hill","localhood":"Broadway","type":"DISTURBANCES","lat":"47.614655","lng":"-122.32079","address":"15XX BLOCK OF BROADWAY","id":"1792158"},{"neighborhood":"Capitol Hill","localhood":"Broadway","type":"DISTURBANCES","lat":"47.616432","lng":"-122.31687","address":"12 AV / E OLIVE ST","id":"1792168"},{"neighborhood":"Capitol Hill","localhood":"Broadway","type":"DISTURBANCES","lat":"47.617596","lng":"-122.31754","address":"11XX BLOCK OF E HOWELL ST","id":"1792165"},{"neighborhood":"Capitol Hill","localhood":"Broadway","type":"TRAFFIC RELATED CALLS","lat":"47.61523","lng":"-122.32342","address":"E PINE ST / BOYLSTON AV","id":"1792167"},{"neighborhood":"Capitol Hill","localhood":"Broadway","type":"LIQUOR VIOLATIONS","lat":"47.614655","lng":"-122.32079","address":"15XX BLOCK OF BROADWAY","id":"1792162"},{"neighborhood":"Capitol Hill","localhood":"Broadway","type":"TRAFFIC RELATED CALLS","lat":"47.614075","lng":"-122.32078","address":"BROADWAY / E PIKE ST","id":"1792179"},{"neighborhood":"Capitol Hill","localhood":"Broadway","type":"DISTURBANCES","lat":"47.61523","lng":"-122.321465","address":"8XX BLOCK OF E PINE ST","id":"1792185"},{"neighborhood":"Capitol Hill","localhood":"Broadway","type":"TRESPASS","lat":"47.624264","lng":"-122.31831","address":"10XX BLOCK OF E MERCER ST","id":"1792191"},{"neighborhood":"Capitol Hill","localhood":"Broadway","type":"TRAFFIC RELATED CALLS","lat":"47.614655","lng":"-122.32079","address":"15XX BLOCK OF BROADWAY","id":"1792204"},{"neighborhood":"Capitol Hill","localhood":"Broadway","type":"SUSPICIOUS CIRCUMSTANCES","lat":"47.617737","lng":"-122.32556","address":"SUMMIT AV / E HOWELL ST","id":"1792208"},{"neighborhood":"Capitol Hill","localhood":"Broadway","type":"TRAFFIC RELATED CALLS","lat":"47.61521","lng":"-122.32619","address":"CRAWFORD PL / E PINE ST","id":"1792213"},{"neighborhood":"Capitol Hill","localhood":"Broadway","type":"PERSONS - LOST, FOUND, MISSING","lat":"47.615856","lng":"-122.31556","address":"16XX BLOCK OF 13 AV","id":"1792218"},{"neighborhood":"Capitol Hill","localhood":"Broadway","type":"PARKING VIOLATIONS","lat":"47.616173","lng":"-122.32789","address":"16XX BLOCK OF MELROSE AV","id":"1792259"},{"neighborhood":"Capitol Hill","localhood":"Broadway","type":"WEAPONS CALLS","lat":"47.626522","lng":"-122.31681","address":"12 AV E / E ALOHA ST","id":"1792251"},{"neighborhood":"Capitol Hill","localhood":"Broadway","type":"WEAPONS CALLS","lat":"47.615234","lng":"-122.3208","address":"BROADWAY / E PINE ST","id":"1792271"},{"neighborhood":"Capitol Hill","localhood":"Broadway","type":"TRESPASS","lat":"47.61409","lng":"-122.318794","address":"10XX BLOCK OF E PIKE ST","id":"1792269"},{"neighborhood":"Capitol Hill","localhood":"Broadway","type":"LIQUOR VIOLATIONS","lat":"47.614063","lng":"-122.32211","address":"HARVARD AV / E PIKE ST","id":"1792331"},{"neighborhood":"Capitol Hill","localhood":"Broadway","type":"LIQUOR VIOLATIONS","lat":"47.614063","lng":"-122.32211","address":"HARVARD AV / E PIKE ST","id":"1792307"},{"neighborhood":"Capitol Hill","localhood":"Broadway","type":"DISTURBANCES","lat":"47.623127","lng":"-122.32092","address":"BROADWAY E / E REPUBLICAN ST","id":"1792341"},{"neighborhood":"Capitol Hill","localhood":"Broadway","type":"SUSPICIOUS CIRCUMSTANCES","lat":"47.615234","lng":"-122.3208","address":"BROADWAY / E PINE ST","id":"1792362"},{"neighborhood":"Capitol Hill","localhood":"Broadway","type":"PARKING VIOLATIONS","lat":"47.615265","lng":"-122.31686","address":"12 AV / E PINE ST","id":"1792414"},{"neighborhood":"Capitol Hill","localhood":"Broadway","type":"LIQUOR VIOLATIONS","lat":"47.614075","lng":"-122.32078","address":"BROADWAY / E PIKE ST","id":"1792396"},{"neighborhood":"Capitol Hill","localhood":"Broadway","type":"VEHICLE ALACAD (FALSE)","lat":"47.618195","lng":"-122.3156","address":"18XX BLOCK OF 13 AV","id":"1792403"}],"numIncidents":35,"percentage":9.831460674157304,"numVariance":32.965714285714284,"percentVariance":9.260032102728733},{"name":"Stevens","incidents":[{"neighborhood":"Capitol Hill","localhood":"Stevens","type":"SUSPICIOUS CIRCUMSTANCES","lat":"47.6205","lng":"-122.311386","address":"16 AV E / E THOMAS ST","id":"1792228"},{"neighborhood":"Capitol Hill","localhood":"Stevens","type":"PARKING VIOLATIONS","lat":"47.61788","lng":"-122.30609","address":"18XX BLOCK OF 20 AV","id":"1792352"}],"numIncidents":2,"percentage":0.5617977528089888,"numVariance":-0.03428571428571425,"percentVariance":-0.009630818619582593},{"name":"Victory Heights","incidents":[{"neighborhood":"Lake City","localhood":"Victory Heights","type":"DISTURBANCES","lat":"47.71937","lng":"-122.30819","address":"19XX BLOCK OF NE 125 ST","id":"1792344"}],"numIncidents":1,"percentage":0.2808988764044944,"numVariance":-1.0342857142857143,"percentVariance":-0.290529695024077},{"name":"Matthews Beach","incidents":[{"neighborhood":"Lake City","localhood":"Matthews Beach","type":"PARKING VIOLATIONS","lat":"47.697376","lng":"-122.28002","address":"NE 95 ST / 45 AV NE","id":"1792288"}],"numIncidents":1,"percentage":0.2808988764044944,"numVariance":-1.0342857142857143,"percentVariance":-0.290529695024077},{"name":"Meadowbrook","incidents":[],"numIncidents":0,"percentage":0,"numVariance":-2.0342857142857143,"percentVariance":-0.5714285714285714},{"name":"Olympic Hills","incidents":[{"neighborhood":"Lake City","localhood":"Olympic Hills","type":"CRISIS CALL","lat":"47.720207","lng":"-122.299095","address":"125XX BLOCK OF 27 AV NE","id":"1792273"},{"neighborhood":"Lake City","localhood":"Olympic Hills","type":"TRESPASS","lat":"47.719345","lng":"-122.305244","address":"22XX BLOCK OF NE 125 ST","id":"1792309"},{"neighborhood":"Lake City","localhood":"Olympic Hills","type":"RESIDENTIAL BURGLARIES","lat":"47.720207","lng":"-122.299095","address":"125XX BLOCK OF 27 AV NE","id":"1792332"}],"numIncidents":3,"percentage":0.8426966292134831,"numVariance":0.9657142857142857,"percentVariance":0.2712680577849117},{"name":"Cedar Park","incidents":[{"neighborhood":"Lake City","localhood":"Cedar Park","type":"SUSPICIOUS CIRCUMSTANCES","lat":"47.72471","lng":"-122.288635","address":"130XX BLOCK OF 37 AV NE","id":"1792206"},{"neighborhood":"Lake City","localhood":"Cedar Park","type":"SUSPICIOUS CIRCUMSTANCES","lat":"47.71832","lng":"-122.293945","address":"123XX BLOCK OF 32 AV NE","id":"1792284"},{"neighborhood":"Lake City","localhood":"Cedar Park","type":"TRAFFIC RELATED CALLS","lat":"47.716877","lng":"-122.29665","address":"LAKE CITY WY NE / 30 AV NE","id":"1792364"}],"numIncidents":3,"percentage":0.8426966292134831,"numVariance":0.9657142857142857,"percentVariance":0.2712680577849117},{"name":"Haller Lake","incidents":[{"neighborhood":"Northgate","localhood":"Haller Lake","type":"PROPERTY - MISSING, FOUND","lat":"47.706707","lng":"-122.34472","address":"107XX BLOCK OF AURORA AV N","id":"1792056"},{"neighborhood":"Northgate","localhood":"Haller Lake","type":"TRAFFIC RELATED CALLS","lat":"47.708645","lng":"-122.331314","address":"N NORTHGATE WY / CORLISS AV N","id":"1792096"},{"neighborhood":"Northgate","localhood":"Haller Lake","type":"DISTURBANCES","lat":"47.72551","lng":"-122.3423","address":"133XX BLOCK OF STONE AV N","id":"1792088"},{"neighborhood":"Northgate","localhood":"Haller Lake","type":"TRAFFIC RELATED CALLS","lat":"47.723164","lng":"-122.32892","address":"NE 130 ST / 1 AV NE","id":"1792117"},{"neighborhood":"Northgate","localhood":"Haller Lake","type":"TRAFFIC RELATED CALLS","lat":"47.708645","lng":"-122.331314","address":"CORLISS AV N / N NORTHGATE WY","id":"1792137"},{"neighborhood":"Northgate","localhood":"Haller Lake","type":"BURGLARY ALACAD (FALSE)","lat":"47.709118","lng":"-122.334","address":"110XX BLOCK OF MERIDIAN AV N","id":"1792132"},{"neighborhood":"Northgate","localhood":"Haller Lake","type":"DISTURBANCES","lat":"47.712303","lng":"-122.33809","address":"15XX BLOCK OF N 115 ST","id":"1792285"}],"numIncidents":7,"percentage":1.9662921348314606,"numVariance":4.965714285714286,"percentVariance":1.3948635634028892},{"name":"Pinehurst","incidents":[{"neighborhood":"Northgate","localhood":"Pinehurst","type":"TRAFFIC RELATED CALLS","lat":"47.723118","lng":"-122.32357","address":"5 AV NE / NE 130 ST","id":"1792037"},{"neighborhood":"Northgate","localhood":"Pinehurst","type":"THEFT","lat":"47.710217","lng":"-122.32861","address":"113XX BLOCK OF 1 AV NE","id":"1792254"}],"numIncidents":2,"percentage":0.5617977528089888,"numVariance":-0.03428571428571425,"percentVariance":-0.009630818619582593},{"name":"North College Park","incidents":[{"neighborhood":"Northgate","localhood":"North College Park","type":"PROPERTY - MISSING, FOUND","lat":"47.69417","lng":"-122.342415","address":"N 90 ST / MIDVALE AV N","id":"1792025"},{"neighborhood":"Northgate","localhood":"North College Park","type":"TRAFFIC RELATED CALLS","lat":"47.70683","lng":"-122.331276","address":"CORLISS AV N / N 107 ST","id":"1792090"},{"neighborhood":"Northgate","localhood":"North College Park","type":"NOISE DISTURBANCE","lat":"47.696884","lng":"-122.33969","address":"92XX BLOCK OF ASHWORTH AV N","id":"1792129"},{"neighborhood":"Northgate","localhood":"North College Park","type":"TRAFFIC RELATED CALLS","lat":"47.69961","lng":"-122.34333","address":"N 97 ST / MIDVALE AV N","id":"1792122"},{"neighborhood":"Northgate","localhood":"North College Park","type":"SUSPICIOUS CIRCUMSTANCES","lat":"47.70233","lng":"-122.334526","address":"100XX BLOCK OF COLLEGE WY N","id":"1792241"},{"neighborhood":"Northgate","localhood":"North College Park","type":"DISTURBANCES","lat":"47.695625","lng":"-122.34323","address":"11XX BLOCK OF N 92 ST","id":"1792326"}],"numIncidents":6,"percentage":1.6853932584269662,"numVariance":3.9657142857142857,"percentVariance":1.1139646869983948},{"name":"Maple Leaf","incidents":[{"neighborhood":"Northgate","localhood":"Maple Leaf","type":"DISTURBANCES","lat":"47.708603","lng":"-122.324615","address":"4XX BLOCK OF NE NORTHGATE WY","id":"1792051"},{"neighborhood":"Northgate","localhood":"Maple Leaf","type":"RESIDENTIAL BURGLARIES","lat":"47.694878","lng":"-122.31081","address":"15XX BLOCK OF NE 91 ST","id":"1792072"},{"neighborhood":"Northgate","localhood":"Maple Leaf","type":"BURGLARY ALACAD (FALSE)","lat":"47.702698","lng":"-122.325836","address":"101XX BLOCK OF 3 AV NE","id":"1792217"},{"neighborhood":"Northgate","localhood":"Maple Leaf","type":"THEFT","lat":"47.708603","lng":"-122.324615","address":"4XX BLOCK OF NE NORTHGATE WY","id":"1792321"}],"numIncidents":4,"percentage":1.1235955056179776,"numVariance":1.9657142857142857,"percentVariance":0.5521669341894062},{"name":"Woodinville Heights","incidents":[],"numIncidents":0,"percentage":0,"numVariance":-2.0342857142857143,"percentVariance":-0.5714285714285714},{"name":"West Wellington","incidents":[],"numIncidents":0,"percentage":0,"numVariance":-2.0342857142857143,"percentVariance":-0.5714285714285714},{"name":"East Wellington","incidents":[],"numIncidents":0,"percentage":0,"numVariance":-2.0342857142857143,"percentVariance":-0.5714285714285714},{"name":"Tourist District","incidents":[],"numIncidents":0,"percentage":0,"numVariance":-2.0342857142857143,"percentVariance":-0.5714285714285714},{"name":"Reinwood Leota","incidents":[],"numIncidents":0,"percentage":0,"numVariance":-2.0342857142857143,"percentVariance":-0.5714285714285714},{"name":"Town Center","incidents":[],"numIncidents":0,"percentage":0,"numVariance":-2.0342857142857143,"percentVariance":-0.5714285714285714},{"name":"Lower West Ridge","incidents":[],"numIncidents":0,"percentage":0,"numVariance":-2.0342857142857143,"percentVariance":-0.5714285714285714},{"name":"North Industrial","incidents":[],"numIncidents":0,"percentage":0,"numVariance":-2.0342857142857143,"percentVariance":-0.5714285714285714},{"name":"Valley Industrial","incidents":[],"numIncidents":0,"percentage":0,"numVariance":-2.0342857142857143,"percentVariance":-0.5714285714285714},{"name":"Wedge","incidents":[],"numIncidents":0,"percentage":0,"numVariance":-2.0342857142857143,"percentVariance":-0.5714285714285714},{"name":"Algona","incidents":[],"numIncidents":0,"percentage":0,"numVariance":-2.0342857142857143,"percentVariance":-0.5714285714285714},{"name":"Auburn","incidents":[],"numIncidents":0,"percentage":0,"numVariance":-2.0342857142857143,"percentVariance":-0.5714285714285714},{"name":"Beaux Arts","incidents":[],"numIncidents":0,"percentage":0,"numVariance":-2.0342857142857143,"percentVariance":-0.5714285714285714},{"name":"Black Diamond","incidents":[],"numIncidents":0,"percentage":0,"numVariance":-2.0342857142857143,"percentVariance":-0.5714285714285714},{"name":"Bothell","incidents":[],"numIncidents":0,"percentage":0,"numVariance":-2.0342857142857143,"percentVariance":-0.5714285714285714},{"name":"Burien","incidents":[],"numIncidents":0,"percentage":0,"numVariance":-2.0342857142857143,"percentVariance":-0.5714285714285714},{"name":"Carnation","incidents":[],"numIncidents":0,"percentage":0,"numVariance":-2.0342857142857143,"percentVariance":-0.5714285714285714},{"name":"Clyde Hill","incidents":[],"numIncidents":0,"percentage":0,"numVariance":-2.0342857142857143,"percentVariance":-0.5714285714285714},{"name":"Covington","incidents":[],"numIncidents":0,"percentage":0,"numVariance":-2.0342857142857143,"percentVariance":-0.5714285714285714},{"name":"Des Moines","incidents":[],"numIncidents":0,"percentage":0,"numVariance":-2.0342857142857143,"percentVariance":-0.5714285714285714},{"name":"Duvall","incidents":[],"numIncidents":0,"percentage":0,"numVariance":-2.0342857142857143,"percentVariance":-0.5714285714285714},{"name":"Enumclaw","incidents":[],"numIncidents":0,"percentage":0,"numVariance":-2.0342857142857143,"percentVariance":-0.5714285714285714},{"name":"Federal Way","incidents":[],"numIncidents":0,"percentage":0,"numVariance":-2.0342857142857143,"percentVariance":-0.5714285714285714},{"name":"Hunts Point","incidents":[],"numIncidents":0,"percentage":0,"numVariance":-2.0342857142857143,"percentVariance":-0.5714285714285714},{"name":"Issaquah","incidents":[],"numIncidents":0,"percentage":0,"numVariance":-2.0342857142857143,"percentVariance":-0.5714285714285714},{"name":"Kent","incidents":[],"numIncidents":0,"percentage":0,"numVariance":-2.0342857142857143,"percentVariance":-0.5714285714285714},{"name":"Kenmore","incidents":[],"numIncidents":0,"percentage":0,"numVariance":-2.0342857142857143,"percentVariance":-0.5714285714285714},{"name":"Lake Forest Park","incidents":[],"numIncidents":0,"percentage":0,"numVariance":-2.0342857142857143,"percentVariance":-0.5714285714285714},{"name":"Medina","incidents":[],"numIncidents":0,"percentage":0,"numVariance":-2.0342857142857143,"percentVariance":-0.5714285714285714},{"name":"Mercer Island","incidents":[],"numIncidents":0,"percentage":0,"numVariance":-2.0342857142857143,"percentVariance":-0.5714285714285714},{"name":"Milton","incidents":[],"numIncidents":0,"percentage":0,"numVariance":-2.0342857142857143,"percentVariance":-0.5714285714285714},{"name":"Maple Valley","incidents":[],"numIncidents":0,"percentage":0,"numVariance":-2.0342857142857143,"percentVariance":-0.5714285714285714},{"name":"North Bend","incidents":[],"numIncidents":0,"percentage":0,"numVariance":-2.0342857142857143,"percentVariance":-0.5714285714285714},{"name":"Newcastle","incidents":[],"numIncidents":0,"percentage":0,"numVariance":-2.0342857142857143,"percentVariance":-0.5714285714285714},{"name":"Normandy Park","incidents":[],"numIncidents":0,"percentage":0,"numVariance":-2.0342857142857143,"percentVariance":-0.5714285714285714},{"name":"Pacific","incidents":[],"numIncidents":0,"percentage":0,"numVariance":-2.0342857142857143,"percentVariance":-0.5714285714285714},{"name":"Redmond","incidents":[],"numIncidents":0,"percentage":0,"numVariance":-2.0342857142857143,"percentVariance":-0.5714285714285714},{"name":"Shoreline","incidents":[],"numIncidents":0,"percentage":0,"numVariance":-2.0342857142857143,"percentVariance":-0.5714285714285714},{"name":"Skykomish","incidents":[],"numIncidents":0,"percentage":0,"numVariance":-2.0342857142857143,"percentVariance":-0.5714285714285714},{"name":"Sammamish","incidents":[],"numIncidents":0,"percentage":0,"numVariance":-2.0342857142857143,"percentVariance":-0.5714285714285714},{"name":"Snoqualmie","incidents":[],"numIncidents":0,"percentage":0,"numVariance":-2.0342857142857143,"percentVariance":-0.5714285714285714},{"name":"SeaTac","incidents":[],"numIncidents":0,"percentage":0,"numVariance":-2.0342857142857143,"percentVariance":-0.5714285714285714},{"name":"Tukwila","incidents":[],"numIncidents":0,"percentage":0,"numVariance":-2.0342857142857143,"percentVariance":-0.5714285714285714},{"name":"Yarrow Point","incidents":[],"numIncidents":0,"percentage":0,"numVariance":-2.0342857142857143,"percentVariance":-0.5714285714285714},{"name":"Phinney Ridge","incidents":[{"neighborhood":"Phinney Ridge","localhood":null,"type":"SUSPICIOUS CIRCUMSTANCES","lat":"47.672794","lng":"-122.34725","address":"60XX BLOCK OF AURORA AV N","id":"1792166"},{"neighborhood":"Phinney Ridge","localhood":null,"type":"TRAFFIC RELATED CALLS","lat":"47.68074","lng":"-122.35531","address":"N 72 ST / GREENWOOD AV N","id":"1792310"}],"numIncidents":2,"percentage":0.5617977528089888,"numVariance":-0.03428571428571425,"percentVariance":-0.009630818619582593},{"name":"Wallingford","incidents":[{"neighborhood":"Wallingford","localhood":null,"type":"PROWLER","lat":"47.662865","lng":"-122.34293","address":"12XX BLOCK OF N 47 ST","id":"1792076"},{"neighborhood":"Wallingford","localhood":null,"type":"DISTURBANCES","lat":"47.648296","lng":"-122.3325","address":"21XX BLOCK OF N NORTHLAKE WY","id":"1792202"},{"neighborhood":"Wallingford","localhood":null,"type":"CRISIS CALL","lat":"47.67156","lng":"-122.32687","address":"1XX BLOCK OF NE 59 ST","id":"1792240"},{"neighborhood":"Wallingford","localhood":null,"type":"CAR PROWL","lat":"47.65429","lng":"-122.33026","address":"N 39 ST / SUNNYSIDE AV N","id":"1792282"},{"neighborhood":"Wallingford","localhood":null,"type":"TRAFFIC RELATED CALLS","lat":"47.66501","lng":"-122.32906","address":"N 50 ST / EASTERN AV N","id":"1792275"},{"neighborhood":"Wallingford","localhood":null,"type":"NUISANCE, MISCHIEF COMPLAINTS","lat":"47.661385","lng":"-122.3344","address":"19XX BLOCK OF N 45 ST","id":"1792242"}],"numIncidents":6,"percentage":1.6853932584269662,"numVariance":3.9657142857142857,"percentVariance":1.1139646869983948},{"name":"Fremont","incidents":[{"neighborhood":"Fremont","localhood":null,"type":"SUSPICIOUS CIRCUMSTANCES","lat":"47.660316","lng":"-122.34379","address":"44XX BLOCK OF MIDVALE AV N","id":"1792151"},{"neighborhood":"Fremont","localhood":null,"type":"DISTURBANCES","lat":"47.651886","lng":"-122.35288","address":"4XX BLOCK OF N 36 ST","id":"1792157"},{"neighborhood":"Fremont","localhood":null,"type":"PARKING VIOLATIONS","lat":"47.64924","lng":"-122.34742","address":"N 34 ST / TROLL AV N","id":"1792244"},{"neighborhood":"Fremont","localhood":null,"type":"TRAFFIC RELATED CALLS","lat":"47.654755","lng":"-122.34466","address":"39XX BLOCK OF WOODLAND PARK AV N","id":"1792381"}],"numIncidents":4,"percentage":1.1235955056179776,"numVariance":1.9657142857142857,"percentVariance":0.5521669341894062},{"name":"Green Lake","incidents":[{"neighborhood":"Green Lake","localhood":null,"type":"NARCOTICS COMPLAINTS","lat":"47.683197","lng":"-122.34143","address":"74XX BLOCK OF KEEN WY N","id":"1792233"},{"neighborhood":"Green Lake","localhood":null,"type":"NUISANCE, MISCHIEF COMPLAINTS","lat":"47.67952","lng":"-122.32227","address":"5XX BLOCK OF NE 70 ST","id":"1792277"},{"neighborhood":"Green Lake","localhood":null,"type":"HAZARDS","lat":"47.684036","lng":"-122.34449","address":"AURORA AV N / N 76 ST","id":"1792333"}],"numIncidents":3,"percentage":0.8426966292134831,"numVariance":0.9657142857142857,"percentVariance":0.2712680577849117},{"name":"View Ridge","incidents":[{"neighborhood":"View Ridge","localhood":null,"type":"DISTURBANCES","lat":"47.684708","lng":"-122.26509","address":"58XX BLOCK OF NE 77 ST","id":"1792040"},{"neighborhood":"View Ridge","localhood":null,"type":"SUSPICIOUS CIRCUMSTANCES","lat":"47.68078","lng":"-122.27059","address":"73XX BLOCK OF 53 AV NE","id":"1792089"},{"neighborhood":"View Ridge","localhood":null,"type":"BURGLARY ALACAD (FALSE)","lat":"47.688564","lng":"-122.279915","address":"80XX BLOCK OF 45 AV NE","id":"1792144"},{"neighborhood":"View Ridge","localhood":null,"type":"TRAFFIC RELATED CALLS","lat":"47.67572","lng":"-122.26355","address":"SAND POINT WY NE / NE 65 ST","id":"1792180"}],"numIncidents":4,"percentage":1.1235955056179776,"numVariance":1.9657142857142857,"percentVariance":0.5521669341894062},{"name":"Ravenna","incidents":[{"neighborhood":"Ravenna","localhood":null,"type":"BURGLARY ALACAD (FALSE)","lat":"47.682137","lng":"-122.30532","address":"73XX BLOCK OF 21 AV NE","id":"1792041"},{"neighborhood":"Ravenna","localhood":null,"type":"PROWLER","lat":"47.674877","lng":"-122.29432","address":"62XX BLOCK OF 31 AV NE","id":"1792099"}],"numIncidents":2,"percentage":0.5617977528089888,"numVariance":-0.03428571428571425,"percentVariance":-0.009630818619582593},{"name":"Sand Point","incidents":[{"neighborhood":"Sand Point","localhood":null,"type":"PROPERTY - MISSING, FOUND","lat":"47.675793","lng":"-122.26143","address":"62 AV NE / NE 65 ST","id":"1792118"},{"neighborhood":"Sand Point","localhood":null,"type":"DISTURBANCES","lat":"47.682926","lng":"-122.263695","address":"SAND POINT WY NE / NE 75 ST","id":"1792143"}],"numIncidents":2,"percentage":0.5617977528089888,"numVariance":-0.03428571428571425,"percentVariance":-0.009630818619582593},{"name":"Bryant","incidents":[{"neighborhood":"Bryant","localhood":null,"type":"DISTURBANCES","lat":"47.66681","lng":"-122.280846","address":"NE 52 ST / SAND POINT WY NE","id":"1792123"},{"neighborhood":"Bryant","localhood":null,"type":"DISTURBANCES","lat":"47.667786","lng":"-122.28154","address":"52XX BLOCK OF MITHUN PL NE","id":"1792354"}],"numIncidents":2,"percentage":0.5617977528089888,"numVariance":-0.03428571428571425,"percentVariance":-0.009630818619582593},{"name":"Windermere","incidents":[{"neighborhood":"Windermere","localhood":null,"type":"PARKING VIOLATIONS","lat":"47.66917","lng":"-122.27491","address":"48XX BLOCK OF PULLMAN AV NE","id":"1792346"}],"numIncidents":1,"percentage":0.2808988764044944,"numVariance":-1.0342857142857143,"percentVariance":-0.290529695024077},{"name":"Laurelhurst","incidents":[],"numIncidents":0,"percentage":0,"numVariance":-2.0342857142857143,"percentVariance":-0.5714285714285714},{"name":"Roosevelt","incidents":[{"neighborhood":"Roosevelt","localhood":null,"type":"TRAFFIC RELATED CALLS","lat":"47.678013","lng":"-122.31739","address":"ROOSEVELT WY NE / NE 68 ST","id":"1792407"}],"numIncidents":1,"percentage":0.2808988764044944,"numVariance":-1.0342857142857143,"percentVariance":-0.290529695024077},{"name":"Georgetown","incidents":[{"neighborhood":"Georgetown","localhood":null,"type":"DISTURBANCES","lat":"47.54893","lng":"-122.317314","address":"60XX BLOCK OF 12 AV S","id":"1792155"},{"neighborhood":"Georgetown","localhood":null,"type":"HAZARDS","lat":"47.54919","lng":"-122.33479","address":"59XX BLOCK OF E MARGINAL WY S","id":"1792237"}],"numIncidents":2,"percentage":0.5617977528089888,"numVariance":-0.03428571428571425,"percentVariance":-0.009630818619582593},{"name":"South Park","incidents":[{"neighborhood":"South Park","localhood":null,"type":"PARKING VIOLATIONS","lat":"47.52187","lng":"-122.32968","address":"90XX BLOCK OF 4 AV S","id":"1792232"}],"numIncidents":1,"percentage":0.2808988764044944,"numVariance":-1.0342857142857143,"percentVariance":-0.290529695024077},{"name":"Harbor Island","incidents":[],"numIncidents":0,"percentage":0,"numVariance":-2.0342857142857143,"percentVariance":-0.5714285714285714},{"name":"Wedgwood","incidents":[],"numIncidents":0,"percentage":0,"numVariance":-2.0342857142857143,"percentVariance":-0.5714285714285714},{"name":"Industrial District","incidents":[{"neighborhood":"Industrial District","localhood":null,"type":"TRAFFIC RELATED CALLS","lat":"47.571507","lng":"-122.33939","address":"ALASKAN WY VI / WEST SEATTLE BR EB","id":"1792048"},{"neighborhood":"Industrial District","localhood":null,"type":"SUSPICIOUS CIRCUMSTANCES","lat":"47.57681","lng":"-122.37146","address":"HARBOR AV SW / SW HARBOR LN","id":"1792133"},{"neighborhood":"Industrial District","localhood":null,"type":"TRAFFIC RELATED CALLS","lat":"47.595833","lng":"-122.32377","address":"7 AV S / S DEARBORN ST","id":"1792170"},{"neighborhood":"Industrial District","localhood":null,"type":"DISTURBANCES","lat":"47.576653","lng":"-122.334206","address":"29XX BLOCK OF 1 AV S","id":"1792169"},{"neighborhood":"Industrial District","localhood":null,"type":"CRISIS CALL","lat":"47.57773","lng":"-122.33513","address":"UTAH AV S / S FOREST ST","id":"1792221"},{"neighborhood":"Industrial District","localhood":null,"type":"DISTURBANCES","lat":"47.585075","lng":"-122.329056","address":"19XX BLOCK OF 4 AV S","id":"1792224"},{"neighborhood":"Industrial District","localhood":null,"type":"TRAFFIC RELATED CALLS","lat":"47.54737","lng":"-122.34509","address":"54XX BLOCK OF W MARGINAL WY SW","id":"1792283"},{"neighborhood":"Industrial District","localhood":null,"type":"PARKING VIOLATIONS","lat":"47.588226","lng":"-122.32474","address":"6XX BLOCK OF S MASSACHUSETTS ST","id":"1792256"},{"neighborhood":"Industrial District","localhood":null,"type":"PARKING VIOLATIONS","lat":"47.5872","lng":"-122.32597","address":"17XX BLOCK OF 6 AV S","id":"1792255"},{"neighborhood":"Industrial District","localhood":null,"type":"PARKING VIOLATIONS","lat":"47.5872","lng":"-122.32597","address":"17XX BLOCK OF 6 AV S","id":"1792250"},{"neighborhood":"Industrial District","localhood":null,"type":"TRAFFIC RELATED CALLS","lat":"47.592396","lng":"-122.3342","address":"1 AV S / S ROYAL BROUGHAM WY","id":"1792357"},{"neighborhood":"Industrial District","localhood":null,"type":"ASSAULTS","lat":"47.59278","lng":"-122.32277","address":"AIRPORT WY S / S ROYAL BROUGHAM WY","id":"1792248"},{"neighborhood":"Industrial District","localhood":null,"type":"PROPERTY DAMAGE","lat":"47.586205","lng":"-122.321396","address":"AIRPORT WY S / S HOLGATE ST","id":"1792316"},{"neighborhood":"Industrial District","localhood":null,"type":"TRAFFIC RELATED CALLS","lat":"47.56634","lng":"-122.33944","address":"E MARGINAL WY S / ALASKAN WY VI NB","id":"1792330"},{"neighborhood":"Industrial District","localhood":null,"type":"TRAFFIC RELATED CALLS","lat":"47.57981","lng":"-122.33513","address":"UTAH AV S / S LANDER ST","id":"1792317"},{"neighborhood":"Industrial District","localhood":null,"type":"TRAFFIC RELATED CALLS","lat":"47.58927","lng":"-122.3342","address":"15XX BLOCK OF 1 AV S","id":"1792384"}],"numIncidents":16,"percentage":4.49438202247191,"numVariance":13.965714285714286,"percentVariance":3.9229534510433393},{"name":"Broadview","incidents":[{"neighborhood":"Broadview","localhood":null,"type":"TRAFFIC RELATED CALLS","lat":"47.725075","lng":"-122.36095","address":"3 AV NW / NW 132 ST","id":"1792047"},{"neighborhood":"Broadview","localhood":null,"type":"NARCOTICS COMPLAINTS","lat":"47.722347","lng":"-122.359604","address":"127XX BLOCK OF 2 AV NW","id":"1792149"},{"neighborhood":"Broadview","localhood":null,"type":"TRAFFIC RELATED CALLS","lat":"47.705082","lng":"-122.35545","address":"GREENWOOD AV N / HOLMAN RD N","id":"1792153"}],"numIncidents":3,"percentage":0.8426966292134831,"numVariance":0.9657142857142857,"percentVariance":0.2712680577849117},{"name":"Bitter Lake","incidents":[{"neighborhood":"Bitter Lake","localhood":null,"type":"ANIMAL COMPLAINTS","lat":"47.705082","lng":"-122.35478","address":"3XX BLOCK OF N 105 ST","id":"1792119"}],"numIncidents":1,"percentage":0.2808988764044944,"numVariance":-1.0342857142857143,"percentVariance":-0.290529695024077},{"name":"North Beach - Blue Ridge","incidents":[{"neighborhood":"North Beach - Blue Ridge","localhood":null,"type":"THEFT","lat":"47.693512","lng":"-122.39187","address":"88XX BLOCK OF EARL AV NW","id":"1792046"},{"neighborhood":"North Beach - Blue Ridge","localhood":null,"type":"PARKING VIOLATIONS","lat":"47.703365","lng":"-122.37542","address":"100XX BLOCK OF MARY AV NW","id":"1792257"}],"numIncidents":2,"percentage":0.5617977528089888,"numVariance":-0.03428571428571425,"percentVariance":-0.009630818619582593},{"name":"Crown Hill","incidents":[{"neighborhood":"Crown Hill","localhood":null,"type":"PROPERTY DAMAGE","lat":"47.69698","lng":"-122.37679","address":"92XX BLOCK OF 15 AV NW","id":"1792130"}],"numIncidents":1,"percentage":0.2808988764044944,"numVariance":-1.0342857142857143,"percentVariance":-0.290529695024077},{"name":"Greenwood","incidents":[{"neighborhood":"Greenwood","localhood":null,"type":"TRAFFIC RELATED CALLS","lat":"47.69238","lng":"-122.34454","address":"AURORA AV N / N 88 ST","id":"1792039"},{"neighborhood":"Greenwood","localhood":null,"type":"TRAFFIC RELATED CALLS","lat":"47.701427","lng":"-122.34465","address":"N 100 ST / AURORA AV N","id":"1792065"},{"neighborhood":"Greenwood","localhood":null,"type":"DISTURBANCES","lat":"47.704327","lng":"-122.34469","address":"AURORA AV N / N 104 ST","id":"1792063"},{"neighborhood":"Greenwood","localhood":null,"type":"SUSPICIOUS CIRCUMSTANCES","lat":"47.701393","lng":"-122.36273","address":"99XX BLOCK OF HOLMAN RD NW","id":"1792142"},{"neighborhood":"Greenwood","localhood":null,"type":"DISTURBANCES","lat":"47.68911","lng":"-122.36466","address":"6XX BLOCK OF NW 83 ST","id":"1792154"},{"neighborhood":"Greenwood","localhood":null,"type":"TRAFFIC RELATED CALLS","lat":"47.70324","lng":"-122.34467","address":"AURORA AV N / N 103 ST","id":"1792171"},{"neighborhood":"Greenwood","localhood":null,"type":"SUSPICIOUS CIRCUMSTANCES","lat":"47.70434","lng":"-122.35007","address":"N 104 ST / FREMONT AV N","id":"1792334"},{"neighborhood":"Greenwood","localhood":null,"type":"CAR PROWL","lat":"47.694923","lng":"-122.34862","address":"7XX BLOCK OF N 91 ST","id":"1792245"}],"numIncidents":8,"percentage":2.247191011235955,"numVariance":5.965714285714286,"percentVariance":1.6757624398073838},{"name":"South Juanita","incidents":[],"numIncidents":0,"percentage":0,"numVariance":-2.0342857142857143,"percentVariance":-0.5714285714285714},{"name":"Kingsgate","incidents":[],"numIncidents":0,"percentage":0,"numVariance":-2.0342857142857143,"percentVariance":-0.5714285714285714},{"name":"North Juanita","incidents":[],"numIncidents":0,"percentage":0,"numVariance":-2.0342857142857143,"percentVariance":-0.5714285714285714},{"name":"Finn Hill","incidents":[],"numIncidents":0,"percentage":0,"numVariance":-2.0342857142857143,"percentVariance":-0.5714285714285714},{"name":"Bridle Trails","incidents":[],"numIncidents":0,"percentage":0,"numVariance":-2.0342857142857143,"percentVariance":-0.5714285714285714},{"name":"Central Houghton","incidents":[],"numIncidents":0,"percentage":0,"numVariance":-2.0342857142857143,"percentVariance":-0.5714285714285714},{"name":"Lakeview","incidents":[],"numIncidents":0,"percentage":0,"numVariance":-2.0342857142857143,"percentVariance":-0.5714285714285714},{"name":"Moss Bay","incidents":[],"numIncidents":0,"percentage":0,"numVariance":-2.0342857142857143,"percentVariance":-0.5714285714285714},{"name":"Everest","incidents":[],"numIncidents":0,"percentage":0,"numVariance":-2.0342857142857143,"percentVariance":-0.5714285714285714},{"name":"South Rose Hill","incidents":[],"numIncidents":0,"percentage":0,"numVariance":-2.0342857142857143,"percentVariance":-0.5714285714285714},{"name":"North Rose Hill","incidents":[],"numIncidents":0,"percentage":0,"numVariance":-2.0342857142857143,"percentVariance":-0.5714285714285714},{"name":"Highlands","incidents":[],"numIncidents":0,"percentage":0,"numVariance":-2.0342857142857143,"percentVariance":-0.5714285714285714},{"name":"Norkirk","incidents":[],"numIncidents":0,"percentage":0,"numVariance":-2.0342857142857143,"percentVariance":-0.5714285714285714},{"name":"Totem Lake","incidents":[],"numIncidents":0,"percentage":0,"numVariance":-2.0342857142857143,"percentVariance":-0.5714285714285714},{"name":"Market","incidents":[],"numIncidents":0,"percentage":0,"numVariance":-2.0342857142857143,"percentVariance":-0.5714285714285714},{"name":"Kennydale","incidents":[],"numIncidents":0,"percentage":0,"numVariance":-2.0342857142857143,"percentVariance":-0.5714285714285714},{"name":"Valley","incidents":[],"numIncidents":0,"percentage":0,"numVariance":-2.0342857142857143,"percentVariance":-0.5714285714285714},{"name":"West Hill","incidents":[],"numIncidents":0,"percentage":0,"numVariance":-2.0342857142857143,"percentVariance":-0.5714285714285714},{"name":"Fairwood","incidents":[],"numIncidents":0,"percentage":0,"numVariance":-2.0342857142857143,"percentVariance":-0.5714285714285714},{"name":"Cedar River","incidents":[],"numIncidents":0,"percentage":0,"numVariance":-2.0342857142857143,"percentVariance":-0.5714285714285714},{"name":"City Center","incidents":[],"numIncidents":0,"percentage":0,"numVariance":-2.0342857142857143,"percentVariance":-0.5714285714285714},{"name":"Benson","incidents":[],"numIncidents":0,"percentage":0,"numVariance":-2.0342857142857143,"percentVariance":-0.5714285714285714},{"name":"Talbot","incidents":[],"numIncidents":0,"percentage":0,"numVariance":-2.0342857142857143,"percentVariance":-0.5714285714285714},{"name":"East Plateau","incidents":[],"numIncidents":0,"percentage":0,"numVariance":-2.0342857142857143,"percentVariance":-0.5714285714285714},{"name":"Highlands","incidents":[],"numIncidents":0,"percentage":0,"numVariance":-2.0342857142857143,"percentVariance":-0.5714285714285714},{"name":"West Bellevue","incidents":[],"numIncidents":0,"percentage":0,"numVariance":-2.0342857142857143,"percentVariance":-0.5714285714285714},{"name":"Wilburton","incidents":[],"numIncidents":0,"percentage":0,"numVariance":-2.0342857142857143,"percentVariance":-0.5714285714285714},{"name":"Woodridge","incidents":[],"numIncidents":0,"percentage":0,"numVariance":-2.0342857142857143,"percentVariance":-0.5714285714285714},{"name":"Newport","incidents":[],"numIncidents":0,"percentage":0,"numVariance":-2.0342857142857143,"percentVariance":-0.5714285714285714},{"name":"Somerset","incidents":[],"numIncidents":0,"percentage":0,"numVariance":-2.0342857142857143,"percentVariance":-0.5714285714285714},{"name":"Bridle Trails","incidents":[],"numIncidents":0,"percentage":0,"numVariance":-2.0342857142857143,"percentVariance":-0.5714285714285714},{"name":"Northeast Bellevue","incidents":[],"numIncidents":0,"percentage":0,"numVariance":-2.0342857142857143,"percentVariance":-0.5714285714285714},{"name":"Crossroads","incidents":[],"numIncidents":0,"percentage":0,"numVariance":-2.0342857142857143,"percentVariance":-0.5714285714285714},{"name":"West Lake Hills","incidents":[],"numIncidents":0,"percentage":0,"numVariance":-2.0342857142857143,"percentVariance":-0.5714285714285714},{"name":"Factoria","incidents":[],"numIncidents":0,"percentage":0,"numVariance":-2.0342857142857143,"percentVariance":-0.5714285714285714},{"name":"Northwest Bellevue","incidents":[],"numIncidents":0,"percentage":0,"numVariance":-2.0342857142857143,"percentVariance":-0.5714285714285714},{"name":"Sammamish - East Lake HillS","incidents":[],"numIncidents":0,"percentage":0,"numVariance":-2.0342857142857143,"percentVariance":-0.5714285714285714},{"name":"Eastgate - Cougar Mountain","incidents":[],"numIncidents":0,"percentage":0,"numVariance":-2.0342857142857143,"percentVariance":-0.5714285714285714},{"name":"Vashon Island","incidents":[],"numIncidents":0,"percentage":0,"numVariance":-2.0342857142857143,"percentVariance":-0.5714285714285714},{"name":"White Center","incidents":[],"numIncidents":0,"percentage":0,"numVariance":-2.0342857142857143,"percentVariance":-0.5714285714285714},{"name":"Upper West Ridge","incidents":[],"numIncidents":0,"percentage":0,"numVariance":-2.0342857142857143,"percentVariance":-0.5714285714285714}]