[{"name":"Loyal Heights","incidents":[{"neighborhood":"Ballard","localhood":"Loyal Heights","type":"DISTURBANCES","lat":"47.68979","lng":"-122.3876","address":"83XX BLOCK OF 24 AV NW","id":"1791169"}],"numIncidents":1,"percentage":0.12239902080783352,"numVariance":-3.668571428571428,"percentVariance":-0.4490295506207379},{"name":"Adams","incidents":[{"neighborhood":"Ballard","localhood":"Adams","type":"PARKING VIOLATIONS","lat":"47.675278","lng":"-122.38886","address":"24XX BLOCK OF NW 64 ST","id":"1791180"},{"neighborhood":"Ballard","localhood":"Adams","type":"DISTURBANCES","lat":"47.671276","lng":"-122.38474","address":"58XX BLOCK OF 22 AV NW","id":"1791202"},{"neighborhood":"Ballard","localhood":"Adams","type":"NARCOTICS COMPLAINTS","lat":"47.66867","lng":"-122.37888","address":"17 AV NW / NW MARKET ST","id":"1791229"},{"neighborhood":"Ballard","localhood":"Adams","type":"SUSPICIOUS CIRCUMSTANCES","lat":"47.66981","lng":"-122.37888","address":"56XX BLOCK OF 17 AV NW","id":"1791317"},{"neighborhood":"Ballard","localhood":"Adams","type":"DISTURBANCES","lat":"47.66868","lng":"-122.38556","address":"22XX BLOCK OF NW MARKET ST","id":"1791411"},{"neighborhood":"Ballard","localhood":"Adams","type":"SUSPICIOUS CIRCUMSTANCES","lat":"47.670177","lng":"-122.38055","address":"17XX BLOCK OF NW 57 ST","id":"1791448"},{"neighborhood":"Ballard","localhood":"Adams","type":"PARKING VIOLATIONS","lat":"47.668633","lng":"-122.39698","address":"30XX BLOCK OF NW MARKET ST","id":"1791471"},{"neighborhood":"Ballard","localhood":"Adams","type":"CRISIS CALL","lat":"47.67018","lng":"-122.38348","address":"20XX BLOCK OF NW 57 ST","id":"1791492"},{"neighborhood":"Ballard","localhood":"Adams","type":"SUSPICIOUS CIRCUMSTANCES","lat":"47.66981","lng":"-122.37888","address":"56XX BLOCK OF 17 AV NW","id":"1791533"},{"neighborhood":"Ballard","localhood":"Adams","type":"TRAFFIC RELATED CALLS","lat":"47.662933","lng":"-122.37632","address":"15 AV NW / NW BALLARD WY","id":"1791582"},{"neighborhood":"Ballard","localhood":"Adams","type":"TRAFFIC RELATED CALLS","lat":"47.670925","lng":"-122.39565","address":"NW 58 ST / 30 AV NW","id":"1791645"},{"neighborhood":"Ballard","localhood":"Adams","type":"THEFT","lat":"47.66868","lng":"-122.38556","address":"22XX BLOCK OF NW MARKET ST","id":"1791706"},{"neighborhood":"Ballard","localhood":"Adams","type":"PARKING VIOLATIONS","lat":"47.675896","lng":"-122.39432","address":"28XX BLOCK OF NW 65 ST","id":"1791817"},{"neighborhood":"Ballard","localhood":"Adams","type":"TRESPASS","lat":"47.6731","lng":"-122.38759","address":"24 AV NW / NW 61 ST","id":"1791956"},{"neighborhood":"Ballard","localhood":"Adams","type":"PROWLER","lat":"47.670174","lng":"-122.37888","address":"17 AV NW / NW 57 ST","id":"1792019"}],"numIncidents":15,"percentage":1.8359853121175032,"numVariance":10.331428571428571,"percentVariance":1.2645567406889318},{"name":"Whittier Heights","incidents":[{"neighborhood":"Ballard","localhood":"Whittier Heights","type":"THEFT","lat":"47.689667","lng":"-122.3768","address":"83XX BLOCK OF 15 AV NW","id":"1791546"},{"neighborhood":"Ballard","localhood":"Whittier Heights","type":"THEFT","lat":"47.689667","lng":"-122.3768","address":"83XX BLOCK OF 15 AV NW","id":"1791596"},{"neighborhood":"Ballard","localhood":"Whittier Heights","type":"DISTURBANCES","lat":"47.68968","lng":"-122.3741","address":"83XX BLOCK OF 14 AV NW","id":"1791634"},{"neighborhood":"Ballard","localhood":"Whittier Heights","type":"DISTURBANCES","lat":"47.689667","lng":"-122.3768","address":"83XX BLOCK OF 15 AV NW","id":"1791765"},{"neighborhood":"Ballard","localhood":"Whittier Heights","type":"SUSPICIOUS CIRCUMSTANCES","lat":"47.69065","lng":"-122.36663","address":"8XX BLOCK OF NW 85 ST","id":"1791928"}],"numIncidents":5,"percentage":0.6119951040391677,"numVariance":0.33142857142857185,"percentVariance":0.040566532610596284},{"name":"West Woodland","incidents":[{"neighborhood":"Ballard","localhood":"West Woodland","type":"DISTURBANCES","lat":"47.665707","lng":"-122.362045","address":"3XX BLOCK OF NW 51 ST","id":"1791201"},{"neighborhood":"Ballard","localhood":"West Woodland","type":"TRAFFIC RELATED CALLS","lat":"47.66865","lng":"-122.36618","address":"8 AV NW / NW MARKET ST","id":"1791236"},{"neighborhood":"Ballard","localhood":"West Woodland","type":"DISTURBANCES","lat":"47.670536","lng":"-122.37621","address":"57XX BLOCK OF 15 AV NW","id":"1791398"},{"neighborhood":"Ballard","localhood":"West Woodland","type":"THEFT","lat":"47.672344","lng":"-122.3624","address":"4XX BLOCK OF NW 60 ST","id":"1791410"},{"neighborhood":"Ballard","localhood":"West Woodland","type":"PARKING VIOLATIONS","lat":"47.66791","lng":"-122.362564","address":"3XX BLOCK OF NW 54 ST","id":"1791430"},{"neighborhood":"Ballard","localhood":"West Woodland","type":"PARKING VIOLATIONS","lat":"47.66791","lng":"-122.362564","address":"3XX BLOCK OF NW 54 ST","id":"1791454"},{"neighborhood":"Ballard","localhood":"West Woodland","type":"THEFT","lat":"47.668667","lng":"-122.3749","address":"14XX BLOCK OF NW MARKET ST","id":"1791509"},{"neighborhood":"Ballard","localhood":"West Woodland","type":"THEFT","lat":"47.66147","lng":"-122.36969","address":"9XX BLOCK OF NW 45 ST","id":"1791556"},{"neighborhood":"Ballard","localhood":"West Woodland","type":"NUISANCE, MISCHIEF COMPLAINTS","lat":"47.6709","lng":"-122.37358","address":"14 AV NW / NW 58 ST","id":"1791599"},{"neighborhood":"Ballard","localhood":"West Woodland","type":"BURGLARY ALACAD (FALSE)","lat":"47.66366","lng":"-122.37218","address":"11XX BLOCK OF NW LEARY WY","id":"1791593"},{"neighborhood":"Ballard","localhood":"West Woodland","type":"TRESPASS","lat":"47.668667","lng":"-122.3749","address":"14XX BLOCK OF NW MARKET ST","id":"1791629"},{"neighborhood":"Ballard","localhood":"West Woodland","type":"THEFT","lat":"47.66147","lng":"-122.36969","address":"9XX BLOCK OF NW 45 ST","id":"1791672"},{"neighborhood":"Ballard","localhood":"West Woodland","type":"NUISANCE, MISCHIEF COMPLAINTS","lat":"47.66146","lng":"-122.36509","address":"6XX BLOCK OF NW 45 ST","id":"1791683"},{"neighborhood":"Ballard","localhood":"West Woodland","type":"SUSPICIOUS CIRCUMSTANCES","lat":"47.668667","lng":"-122.3749","address":"14XX BLOCK OF NW MARKET ST","id":"1791882"},{"neighborhood":"Ballard","localhood":"West Woodland","type":"DISTURBANCES","lat":"47.668663","lng":"-122.37621","address":"NW MARKET ST / 15 AV NW","id":"1791961"},{"neighborhood":"Ballard","localhood":"West Woodland","type":"TRAFFIC RELATED CALLS","lat":"47.66866","lng":"-122.36739","address":"8XX BLOCK OF NW MARKET ST","id":"1791992"},{"neighborhood":"Ballard","localhood":"West Woodland","type":"TRAFFIC RELATED CALLS","lat":"47.666428","lng":"-122.37218","address":"11XX BLOCK OF NW 52 ST","id":"1792022"}],"numIncidents":17,"percentage":2.08078335373317,"numVariance":12.331428571428571,"percentVariance":1.5093547823045987},{"name":"Sunset Hill","incidents":[{"neighborhood":"Ballard","localhood":"Sunset Hill","type":"NUISANCE, MISCHIEF COMPLAINTS","lat":"47.68403","lng":"-122.40041","address":"75XX BLOCK OF 34 AV NW","id":"1791225"},{"neighborhood":"Ballard","localhood":"Sunset Hill","type":"TRESPASS","lat":"47.6724","lng":"-122.406044","address":"60XX BLOCK OF SEAVIEW AV NW","id":"1791353"},{"neighborhood":"Ballard","localhood":"Sunset Hill","type":"THREATS, HARASSMENT","lat":"47.68773","lng":"-122.393036","address":"80XX BLOCK OF 28 AV NW","id":"1791491"}],"numIncidents":3,"percentage":0.36719706242350064,"numVariance":-1.6685714285714282,"percentVariance":-0.20423150900507075},{"name":"University District","incidents":[{"neighborhood":"University District","localhood":null,"type":"NOISE DISTURBANCE","lat":"47.663963","lng":"-122.30651","address":"47XX BLOCK OF 20 AV NE","id":"1791191"},{"neighborhood":"University District","localhood":null,"type":"NOISE DISTURBANCE","lat":"47.663963","lng":"-122.30834","address":"47XX BLOCK OF 18 AV NE","id":"1791195"},{"neighborhood":"University District","localhood":null,"type":"RESIDENTIAL BURGLARIES","lat":"47.657917","lng":"-122.316666","address":"41XX BLOCK OF 11 AV NE","id":"1791214"},{"neighborhood":"University District","localhood":null,"type":"DISTURBANCES","lat":"47.661266","lng":"-122.31313","address":"UNIVERSITY WY NE / NE 45 ST","id":"1791220"},{"neighborhood":"University District","localhood":null,"type":"SUSPICIOUS CIRCUMSTANCES","lat":"47.667465","lng":"-122.30715","address":"52XX BLOCK OF 19 AV NE","id":"1791235"},{"neighborhood":"University District","localhood":null,"type":"AUTO THEFTS","lat":"47.66307","lng":"-122.305466","address":"NE 47 ST / 21 AV NE","id":"1791290"},{"neighborhood":"University District","localhood":null,"type":"DISTURBANCES","lat":"47.665733","lng":"-122.30278","address":"23XX BLOCK OF NE 51 ST","id":"1791289"},{"neighborhood":"University District","localhood":null,"type":"THREATS, HARASSMENT","lat":"47.6675","lng":"-122.31417","address":"52XX BLOCK OF BROOKLYN AV NE","id":"1791293"},{"neighborhood":"University District","localhood":null,"type":"PARKING VIOLATIONS","lat":"47.657604","lng":"-122.31554","address":"41XX BLOCK OF 12 AV NE","id":"1791300"},{"neighborhood":"University District","localhood":null,"type":"NOISE DISTURBANCE","lat":"47.667477","lng":"-122.30963","address":"52XX BLOCK OF 17 AV NE","id":"1791301"},{"neighborhood":"University District","localhood":null,"type":"LIQUOR VIOLATIONS","lat":"47.66126","lng":"-122.312","address":"NE 45 ST / 15 AV NE","id":"1791350"},{"neighborhood":"University District","localhood":null,"type":"SUSPICIOUS CIRCUMSTANCES","lat":"47.66216","lng":"-122.3097","address":"45XX BLOCK OF 17 AV NE","id":"1791356"},{"neighborhood":"University District","localhood":null,"type":"TRAFFIC RELATED CALLS","lat":"47.661285","lng":"-122.315445","address":"12 AV NE / NE 45 ST","id":"1791403"},{"neighborhood":"University District","localhood":null,"type":"COMMERCIAL BURGLARIES","lat":"47.65831","lng":"-122.31264","address":"14XX BLOCK OF NE 42 ST","id":"1791428"},{"neighborhood":"University District","localhood":null,"type":"DISTURBANCES","lat":"47.666435","lng":"-122.31739","address":"NE 52 ST / ROOSEVELT WY NE","id":"1791462"},{"neighborhood":"University District","localhood":null,"type":"TRAFFIC RELATED CALLS","lat":"47.66126","lng":"-122.312","address":"NE 45 ST / 15 AV NE","id":"1791507"},{"neighborhood":"University District","localhood":null,"type":"RESIDENTIAL BURGLARIES","lat":"47.671116","lng":"-122.31736","address":"58XX BLOCK OF ROOSEVELT WY NE","id":"1791506"},{"neighborhood":"University District","localhood":null,"type":"PROPERTY - MISSING, FOUND","lat":"47.671116","lng":"-122.31736","address":"58XX BLOCK OF ROOSEVELT WY NE","id":"1791502"},{"neighborhood":"University District","localhood":null,"type":"AUTO THEFTS","lat":"47.670403","lng":"-122.31736","address":"57XX BLOCK OF ROOSEVELT WY NE","id":"1791588"},{"neighborhood":"University District","localhood":null,"type":"TRESPASS","lat":"47.662167","lng":"-122.306526","address":"45XX BLOCK OF 20 AV NE","id":"1791583"},{"neighborhood":"University District","localhood":null,"type":"TRESPASS","lat":"47.661198","lng":"-122.29104","address":"32XX BLOCK OF NE 45 ST","id":"1791622"},{"neighborhood":"University District","localhood":null,"type":"DISTURBANCES","lat":"47.664005","lng":"-122.314224","address":"47XX BLOCK OF BROOKLYN AV NE","id":"1791671"},{"neighborhood":"University District","localhood":null,"type":"SUSPICIOUS CIRCUMSTANCES","lat":"47.660534","lng":"-122.31315","address":"43XX BLOCK OF UNIVERSITY WY NE","id":"1791687"},{"neighborhood":"University District","localhood":null,"type":"DISTURBANCES","lat":"47.65832","lng":"-122.31378","address":"13XX BLOCK OF NE 42 ST","id":"1791719"},{"neighborhood":"University District","localhood":null,"type":"DISTURBANCES","lat":"47.664005","lng":"-122.314224","address":"47XX BLOCK OF BROOKLYN AV NE","id":"1791818"},{"neighborhood":"University District","localhood":null,"type":"LIQUOR VIOLATIONS","lat":"47.66489","lng":"-122.311935","address":"15 AV NE / NE 50 ST","id":"1791835"},{"neighborhood":"University District","localhood":null,"type":"HAZARDS","lat":"47.663082","lng":"-122.311966","address":"NE 47 ST / 15 AV NE","id":"1791892"},{"neighborhood":"University District","localhood":null,"type":"VEHICLE ALACAD (FALSE)","lat":"47.657604","lng":"-122.31554","address":"41XX BLOCK OF 12 AV NE","id":"1791886"},{"neighborhood":"University District","localhood":null,"type":"SUSPICIOUS CIRCUMSTANCES","lat":"47.664013","lng":"-122.315254","address":"47XX BLOCK OF 12 AV NE","id":"1791905"},{"neighborhood":"University District","localhood":null,"type":"ASSAULTS","lat":"47.66058","lng":"-122.317726","address":"43XX BLOCK OF ROOSEVELT WY NE","id":"1791934"},{"neighborhood":"University District","localhood":null,"type":"DISTURBANCES","lat":"47.660534","lng":"-122.31315","address":"43XX BLOCK OF UNIVERSITY WY NE","id":"1791985"}],"numIncidents":31,"percentage":3.7943696450428397,"numVariance":26.33142857142857,"percentVariance":3.222941073614268},{"name":"East Queen Anne","incidents":[{"neighborhood":"Queen Anne","localhood":"East Queen Anne","type":"TRAFFIC RELATED CALLS","lat":"47.629723","lng":"-122.34353","address":"AURORA AV N / HIGHLAND DR","id":"1791230"},{"neighborhood":"Queen Anne","localhood":"East Queen Anne","type":"RESIDENTIAL BURGLARIES","lat":"47.63613","lng":"-122.34842","address":"19XX BLOCK OF BIGELOW AV N","id":"1791351"},{"neighborhood":"Queen Anne","localhood":"East Queen Anne","type":"PARKING VIOLATIONS","lat":"47.638577","lng":"-122.343864","address":"21XX BLOCK OF DEXTER AV N","id":"1791435"},{"neighborhood":"Queen Anne","localhood":"East Queen Anne","type":"HAZARDS","lat":"47.642517","lng":"-122.35057","address":"QUEEN ANNE DR / NOB HILL AV N","id":"1791468"},{"neighborhood":"Queen Anne","localhood":"East Queen Anne","type":"HAZARDS","lat":"47.63742","lng":"-122.34437","address":"AURORA AV N / CROCKETT ST","id":"1791514"},{"neighborhood":"Queen Anne","localhood":"East Queen Anne","type":"TRAFFIC RELATED CALLS","lat":"47.63742","lng":"-122.34437","address":"AURORA AV N / CROCKETT ST","id":"1791774"},{"neighborhood":"Queen Anne","localhood":"East Queen Anne","type":"SUSPICIOUS CIRCUMSTANCES","lat":"47.64503","lng":"-122.347305","address":"27XX BLOCK OF WESTLAKE AV N","id":"1791813"}],"numIncidents":7,"percentage":0.8567931456548347,"numVariance":2.331428571428572,"percentVariance":0.28536457422626327},{"name":"West Queen Anne","incidents":[{"neighborhood":"Queen Anne","localhood":"West Queen Anne","type":"THEFT","lat":"47.63416","lng":"-122.37614","address":"16XX BLOCK OF 15 AV W","id":"1791516"},{"neighborhood":"Queen Anne","localhood":"West Queen Anne","type":"BURGLARY ALACAD (FALSE)","lat":"47.63868","lng":"-122.363625","address":"21XX BLOCK OF 5 AV W","id":"1791567"},{"neighborhood":"Queen Anne","localhood":"West Queen Anne","type":"PARKING VIOLATIONS","lat":"47.63868","lng":"-122.36898","address":"21XX BLOCK OF 9 AV W","id":"1791619"},{"neighborhood":"Queen Anne","localhood":"West Queen Anne","type":"TRAFFIC RELATED CALLS","lat":"47.63232","lng":"-122.36009","address":"2XX BLOCK OF W GALER ST","id":"1791694"},{"neighborhood":"Queen Anne","localhood":"West Queen Anne","type":"TRAFFIC RELATED CALLS","lat":"47.628586","lng":"-122.371","address":"ELLIOTT AV W / W PROSPECT ST","id":"1791986"}],"numIncidents":5,"percentage":0.6119951040391677,"numVariance":0.33142857142857185,"percentVariance":0.040566532610596284},{"name":"Lower Queen Anne","incidents":[{"neighborhood":"Queen Anne","localhood":"Lower Queen Anne","type":"SUSPICIOUS CIRCUMSTANCES","lat":"47.623283","lng":"-122.35934","address":"2 AV W / W REPUBLICAN ST","id":"1791261"},{"neighborhood":"Queen Anne","localhood":"Lower Queen Anne","type":"DISTURBANCES","lat":"47.624146","lng":"-122.36512","address":"5XX BLOCK OF ELLIOTT AV W","id":"1791321"},{"neighborhood":"Queen Anne","localhood":"Lower Queen Anne","type":"TRAFFIC RELATED CALLS","lat":"47.624584","lng":"-122.35802","address":"1 AV W / W MERCER ST","id":"1791365"},{"neighborhood":"Queen Anne","localhood":"Lower Queen Anne","type":"PARKING VIOLATIONS","lat":"47.62673","lng":"-122.36061","address":"3 AV W / W OLYMPIC PL","id":"1791438"},{"neighborhood":"Queen Anne","localhood":"Lower Queen Anne","type":"PARKING VIOLATIONS","lat":"47.624588","lng":"-122.35932","address":"2 AV W / W MERCER ST","id":"1791480"},{"neighborhood":"Queen Anne","localhood":"Lower Queen Anne","type":"TRAFFIC RELATED CALLS","lat":"47.624603","lng":"-122.36569","address":"ELLIOTT AV W / W MERCER ST","id":"1791505"},{"neighborhood":"Queen Anne","localhood":"Lower Queen Anne","type":"CASUALTIES","lat":"47.624596","lng":"-122.360634","address":"W MERCER ST / 3 AV W","id":"1791495"},{"neighborhood":"Queen Anne","localhood":"Lower Queen Anne","type":"TRESPASS","lat":"47.620358","lng":"-122.35674","address":"2XX BLOCK OF QUEEN ANNE AV N","id":"1791524"},{"neighborhood":"Queen Anne","localhood":"Lower Queen Anne","type":"TRAFFIC RELATED CALLS","lat":"47.622074","lng":"-122.347595","address":"5 AV N / HARRISON ST","id":"1791541"},{"neighborhood":"Queen Anne","localhood":"Lower Queen Anne","type":"TRAFFIC RELATED CALLS","lat":"47.624146","lng":"-122.36512","address":"5XX BLOCK OF ELLIOTT AV W","id":"1791647"},{"neighborhood":"Queen Anne","localhood":"Lower Queen Anne","type":"DISTURBANCES","lat":"47.623928","lng":"-122.35671","address":"5XX BLOCK OF QUEEN ANNE AV N","id":"1791696"},{"neighborhood":"Queen Anne","localhood":"Lower Queen Anne","type":"PARKING VIOLATIONS","lat":"47.63133","lng":"-122.36116","address":"3XX BLOCK OF W LEE ST","id":"1791721"},{"neighborhood":"Queen Anne","localhood":"Lower Queen Anne","type":"THEFT","lat":"47.624577","lng":"-122.35475","address":"1XX BLOCK OF MERCER ST","id":"1791814"},{"neighborhood":"Queen Anne","localhood":"Lower Queen Anne","type":"THEFT","lat":"47.624577","lng":"-122.35475","address":"1XX BLOCK OF MERCER ST","id":"1791860"},{"neighborhood":"Queen Anne","localhood":"Lower Queen Anne","type":"THEFT","lat":"47.624577","lng":"-122.35475","address":"1XX BLOCK OF MERCER ST","id":"1791867"},{"neighborhood":"Queen Anne","localhood":"Lower Queen Anne","type":"DISTURBANCES","lat":"47.623924","lng":"-122.35541","address":"5XX BLOCK OF 1 AV N","id":"1791931"},{"neighborhood":"Queen Anne","localhood":"Lower Queen Anne","type":"TRAFFIC RELATED CALLS","lat":"47.628033","lng":"-122.34755","address":"5 AV N / WARD ST","id":"1791932"},{"neighborhood":"Queen Anne","localhood":"Lower Queen Anne","type":"SUSPICIOUS CIRCUMSTANCES","lat":"47.625427","lng":"-122.34822","address":"4XX BLOCK OF ROY ST","id":"1791974"},{"neighborhood":"Queen Anne","localhood":"Lower Queen Anne","type":"THEFT","lat":"47.624577","lng":"-122.35475","address":"1XX BLOCK OF MERCER ST","id":"1792001"}],"numIncidents":19,"percentage":2.3255813953488373,"numVariance":14.331428571428571,"percentVariance":1.754152823920266},{"name":"North Queen Anne","incidents":[{"neighborhood":"Queen Anne","localhood":"North Queen Anne","type":"SUSPICIOUS CIRCUMSTANCES","lat":"47.64305","lng":"-122.37486","address":"26XX BLOCK OF 14 AV W","id":"1791219"},{"neighborhood":"Queen Anne","localhood":"North Queen Anne","type":"SUSPICIOUS CIRCUMSTANCES","lat":"47.640503","lng":"-122.36494","address":"24XX BLOCK OF 6 AV W","id":"1791267"},{"neighborhood":"Queen Anne","localhood":"North Queen Anne","type":"AUTO THEFTS","lat":"47.640175","lng":"-122.36896","address":"24XX BLOCK OF 9 AV W","id":"1791364"},{"neighborhood":"Queen Anne","localhood":"North Queen Anne","type":"CAR PROWL","lat":"47.647778","lng":"-122.35921","address":"XX BLOCK OF W ETRURIA ST","id":"1791395"},{"neighborhood":"Queen Anne","localhood":"North Queen Anne","type":"PARKING VIOLATIONS","lat":"47.645374","lng":"-122.3622","address":"28XX BLOCK OF 4 AV W","id":"1791451"},{"neighborhood":"Queen Anne","localhood":"North Queen Anne","type":"DISTURBANCES","lat":"47.647774","lng":"-122.356094","address":"XX BLOCK OF ETRURIA ST","id":"1791554"},{"neighborhood":"Queen Anne","localhood":"North Queen Anne","type":"SUSPICIOUS CIRCUMSTANCES","lat":"47.64804","lng":"-122.353905","address":"1XX BLOCK OF NICKERSON ST","id":"1791673"},{"neighborhood":"Queen Anne","localhood":"North Queen Anne","type":"BURGLARY ALACAD (FALSE)","lat":"47.642025","lng":"-122.36158","address":"3XX BLOCK OF W HALLADAY ST","id":"1792003"}],"numIncidents":8,"percentage":0.9791921664626682,"numVariance":3.331428571428572,"percentVariance":0.40776359503409676},{"name":"Westlake","incidents":[{"neighborhood":"Cascade","localhood":"Westlake","type":"BURGLARY ALACAD (FALSE)","lat":"47.630993","lng":"-122.340996","address":"12XX BLOCK OF WESTLAKE AV N","id":"1791832"},{"neighborhood":"Cascade","localhood":"Westlake","type":"TRAFFIC RELATED CALLS","lat":"47.62717","lng":"-122.33962","address":"WESTLAKE AV N / 9 AV N","id":"1791933"}],"numIncidents":2,"percentage":0.24479804161566704,"numVariance":-2.668571428571428,"percentVariance":-0.32663052981290436},{"name":"Eastlake","incidents":[{"neighborhood":"Cascade","localhood":"Eastlake","type":"BURGLARY ALACAD (FALSE)","lat":"47.63537","lng":"-122.3254","address":"18XX BLOCK OF EASTLAKE AV E","id":"1791357"},{"neighborhood":"Cascade","localhood":"Eastlake","type":"PARKING VIOLATIONS","lat":"47.64699","lng":"-122.3234","address":"FRANKLIN AV E / BOYLSTON AV E","id":"1791423"},{"neighborhood":"Cascade","localhood":"Eastlake","type":"TRESPASS","lat":"47.64151","lng":"-122.32952","address":"23XX BLOCK OF FAIRVIEW AV E","id":"1791736"},{"neighborhood":"Cascade","localhood":"Eastlake","type":"TRESPASS","lat":"47.63751","lng":"-122.324684","address":"20XX BLOCK OF FRANKLIN AV E","id":"1791826"},{"neighborhood":"Cascade","localhood":"Eastlake","type":"DISTURBANCES","lat":"47.63973","lng":"-122.32468","address":"FRANKLIN AV E / E LYNN ST","id":"1791880"},{"neighborhood":"Cascade","localhood":"Eastlake","type":"SUSPICIOUS CIRCUMSTANCES","lat":"47.63899","lng":"-122.32468","address":"22XX BLOCK OF FRANKLIN AV E","id":"1791968"}],"numIncidents":6,"percentage":0.7343941248470013,"numVariance":1.3314285714285718,"percentVariance":0.1629655534184299},{"name":"South Lake Union","incidents":[{"neighborhood":"Cascade","localhood":"South Lake Union","type":"TRESPASS","lat":"47.62139","lng":"-122.33171","address":"3XX BLOCK OF PONTIUS AV N","id":"1791168"},{"neighborhood":"Cascade","localhood":"South Lake Union","type":"SUSPICIOUS CIRCUMSTANCES","lat":"47.61916","lng":"-122.34889","address":"1XX BLOCK OF 4 AV N","id":"1791237"},{"neighborhood":"Cascade","localhood":"South Lake Union","type":"CAR PROWL","lat":"47.62032","lng":"-122.3463","address":"2XX BLOCK OF TAYLOR AV N","id":"1791244"},{"neighborhood":"Cascade","localhood":"South Lake Union","type":"PROPERTY DAMAGE","lat":"47.618523","lng":"-122.329926","address":"13XX BLOCK OF DENNY WY","id":"1791308"},{"neighborhood":"Cascade","localhood":"South Lake Union","type":"PARKING VIOLATIONS","lat":"47.62258","lng":"-122.334274","address":"4XX BLOCK OF FAIRVIEW AV N","id":"1791408"},{"neighborhood":"Cascade","localhood":"South Lake Union","type":"NUISANCE, MISCHIEF COMPLAINTS","lat":"47.618534","lng":"-122.32913","address":"EASTLAKE AV / DENNY WY","id":"1791459"},{"neighborhood":"Cascade","localhood":"South Lake Union","type":"SUSPICIOUS CIRCUMSTANCES","lat":"47.62455","lng":"-122.34366","address":"AURORA AV N / MERCER ST","id":"1791473"},{"neighborhood":"Cascade","localhood":"South Lake Union","type":"DISTURBANCES","lat":"47.618576","lng":"-122.34893","address":"4 AV / DENNY WY","id":"1791544"},{"neighborhood":"Cascade","localhood":"South Lake Union","type":"TRAFFIC RELATED CALLS","lat":"47.626263","lng":"-122.34234","address":"DEXTER AV N / VALLEY ST","id":"1791699"},{"neighborhood":"Cascade","localhood":"South Lake Union","type":"DISTURBANCES","lat":"47.618576","lng":"-122.34893","address":"4 AV / DENNY WY","id":"1791712"},{"neighborhood":"Cascade","localhood":"South Lake Union","type":"THEFT","lat":"47.622623","lng":"-122.33845","address":"4XX BLOCK OF WESTLAKE AV N","id":"1791725"},{"neighborhood":"Cascade","localhood":"South Lake Union","type":"DISTURBANCES","lat":"47.618576","lng":"-122.34893","address":"4 AV / DENNY WY","id":"1791717"},{"neighborhood":"Cascade","localhood":"South Lake Union","type":"TRAFFIC RELATED CALLS","lat":"47.624695","lng":"-122.34235","address":"6XX BLOCK OF DEXTER AV N","id":"1791804"},{"neighborhood":"Cascade","localhood":"South Lake Union","type":"HAZARDS","lat":"47.62454","lng":"-122.33429","address":"FAIRVIEW AV N / MERCER ST","id":"1791834"},{"neighborhood":"Cascade","localhood":"South Lake Union","type":"SUSPICIOUS CIRCUMSTANCES","lat":"47.62139","lng":"-122.33171","address":"3XX BLOCK OF PONTIUS AV N","id":"1791853"},{"neighborhood":"Cascade","localhood":"South Lake Union","type":"LIQUOR VIOLATIONS","lat":"47.618534","lng":"-122.32913","address":"DENNY WY / EASTLAKE AV E","id":"1791858"}],"numIncidents":16,"percentage":1.9583843329253363,"numVariance":11.331428571428571,"percentVariance":1.386955761496765},{"name":"Lawton Park","incidents":[{"neighborhood":"Magnolia","localhood":"Lawton Park","type":"PROPERTY DAMAGE","lat":"47.659023","lng":"-122.390434","address":"42XX BLOCK OF GILMAN AV W","id":"1791284"},{"neighborhood":"Magnolia","localhood":"Lawton Park","type":"THEFT","lat":"47.655125","lng":"-122.388725","address":"38XX BLOCK OF 25 AV W","id":"1791752"},{"neighborhood":"Magnolia","localhood":"Lawton Park","type":"BURGLARY ALACAD (FALSE)","lat":"47.650898","lng":"-122.39691","address":"34XX BLOCK OF 31 AV W","id":"1791773"}],"numIncidents":3,"percentage":0.36719706242350064,"numVariance":-1.6685714285714282,"percentVariance":-0.20423150900507075},{"name":"Briarcliff","incidents":[{"neighborhood":"Magnolia","localhood":"Briarcliff","type":"SUSPICIOUS CIRCUMSTANCES","lat":"47.644688","lng":"-122.41497","address":"26XX BLOCK OF MAGNOLIA LN W","id":"1792016"}],"numIncidents":1,"percentage":0.12239902080783352,"numVariance":-3.668571428571428,"percentVariance":-0.4490295506207379},{"name":"Southeast Magnolia","incidents":[{"neighborhood":"Magnolia","localhood":"Southeast Magnolia","type":"SUSPICIOUS CIRCUMSTANCES","lat":"47.647526","lng":"-122.38741","address":"30XX BLOCK OF 24 AV W","id":"1791239"},{"neighborhood":"Magnolia","localhood":"Southeast Magnolia","type":"CAR PROWL","lat":"47.633755","lng":"-122.39645","address":"30XX BLOCK OF W GARFIELD ST","id":"1791377"},{"neighborhood":"Magnolia","localhood":"Southeast Magnolia","type":"DISTURBANCES","lat":"47.63769","lng":"-122.39169","address":"26XX BLOCK OF W CROCKETT ST","id":"1791518"},{"neighborhood":"Magnolia","localhood":"Southeast Magnolia","type":"CAR PROWL","lat":"47.6439","lng":"-122.3942","address":"26XX BLOCK OF 29 AV W","id":"1791750"}],"numIncidents":4,"percentage":0.4895960832313341,"numVariance":-0.6685714285714282,"percentVariance":-0.08183248819723732},{"name":"Madrona","incidents":[{"neighborhood":"Central Area","localhood":"Madrona","type":"SUSPICIOUS CIRCUMSTANCES","lat":"47.612885","lng":"-122.28931","address":"34 AV / E UNION ST","id":"1791388"},{"neighborhood":"Central Area","localhood":"Madrona","type":"TRAFFIC RELATED CALLS","lat":"47.61646","lng":"-122.28461","address":"MADRONA DR / E OLIVE ST","id":"1791805"},{"neighborhood":"Central Area","localhood":"Madrona","type":"SUSPICIOUS CIRCUMSTANCES","lat":"47.609833","lng":"-122.28939","address":"8XX BLOCK OF 34 AV","id":"1791904"},{"neighborhood":"Central Area","localhood":"Madrona","type":"DISTURBANCES","lat":"47.615856","lng":"-122.29355","address":"16XX BLOCK OF 30 AV","id":"1791894"}],"numIncidents":4,"percentage":0.4895960832313341,"numVariance":-0.6685714285714282,"percentVariance":-0.08183248819723732},{"name":"Harrison - Denny-Blaine","incidents":[{"neighborhood":"Central Area","localhood":"Harrison - Denny-Blaine","type":"BURGLARY ALACAD (FALSE)","lat":"47.618816","lng":"-122.281685","address":"1XX BLOCK OF LAKE WASHINGTON BV E","id":"1791245"},{"neighborhood":"Central Area","localhood":"Harrison - Denny-Blaine","type":"SUSPICIOUS CIRCUMSTANCES","lat":"47.619095","lng":"-122.28778","address":"34XX BLOCK OF E FLORENCE CT","id":"1791589"},{"neighborhood":"Central Area","localhood":"Harrison - Denny-Blaine","type":"TRAFFIC RELATED CALLS","lat":"47.620106","lng":"-122.281586","address":"2XX BLOCK OF LAKE WASHINGTON BV E","id":"1791802"},{"neighborhood":"Central Area","localhood":"Harrison - Denny-Blaine","type":"ASSAULTS","lat":"47.61953","lng":"-122.2948","address":"1XX BLOCK OF 29 AV E","id":"1791877"}],"numIncidents":4,"percentage":0.4895960832313341,"numVariance":-0.6685714285714282,"percentVariance":-0.08183248819723732},{"name":"Minor","incidents":[{"neighborhood":"Central Area","localhood":"Minor","type":"DISTURBANCES","lat":"47.616","lng":"-122.30743","address":"16XX BLOCK OF 19 AV","id":"1791532"},{"neighborhood":"Central Area","localhood":"Minor","type":"TRAFFIC RELATED CALLS","lat":"47.61289","lng":"-122.316734","address":"E UNION ST / 12 AV","id":"1791573"},{"neighborhood":"Central Area","localhood":"Minor","type":"SUSPICIOUS CIRCUMSTANCES","lat":"47.61559","lng":"-122.31016","address":"17 AV / E MADISON ST","id":"1791607"},{"neighborhood":"Central Area","localhood":"Minor","type":"DISTURBANCES","lat":"47.60711","lng":"-122.31155","address":"5XX BLOCK OF 16 AV","id":"1791746"},{"neighborhood":"Central Area","localhood":"Minor","type":"TRAFFIC RELATED CALLS","lat":"47.61613","lng":"-122.308846","address":"18 AV / E MADISON ST","id":"1791809"},{"neighborhood":"Central Area","localhood":"Minor","type":"SUSPICIOUS CIRCUMSTANCES","lat":"47.615704","lng":"-122.308846","address":"16XX BLOCK OF 18 AV","id":"1791831"}],"numIncidents":6,"percentage":0.7343941248470013,"numVariance":1.3314285714285718,"percentVariance":0.1629655534184299},{"name":"Leschi","incidents":[{"neighborhood":"Central Area","localhood":"Leschi","type":"DISTURBANCES","lat":"47.604496","lng":"-122.29052","address":"E ALDER ST / 33 AV","id":"1791165"},{"neighborhood":"Central Area","localhood":"Leschi","type":"DISTURBANCES","lat":"47.591724","lng":"-122.29545","address":"13XX BLOCK OF 29 AV S","id":"1791207"},{"neighborhood":"Central Area","localhood":"Leschi","type":"ANIMAL COMPLAINTS","lat":"47.598648","lng":"-122.29743","address":"4XX BLOCK OF M L KING JR WY S","id":"1791508"},{"neighborhood":"Central Area","localhood":"Leschi","type":"SUSPICIOUS CIRCUMSTANCES","lat":"47.60063","lng":"-122.28571","address":"2XX BLOCK OF LAKESIDE AV S","id":"1791695"},{"neighborhood":"Central Area","localhood":"Leschi","type":"PARKING VIOLATIONS","lat":"47.60242","lng":"-122.293724","address":"1XX BLOCK OF 30 AV","id":"1791731"}],"numIncidents":5,"percentage":0.6119951040391677,"numVariance":0.33142857142857185,"percentVariance":0.040566532610596284},{"name":"Mann","incidents":[{"neighborhood":"Central Area","localhood":"Mann","type":"TRAFFIC RELATED CALLS","lat":"47.61294","lng":"-122.30142","address":"24 AV / E UNION ST","id":"1791901"},{"neighborhood":"Central Area","localhood":"Mann","type":"DISTURBANCES","lat":"47.606174","lng":"-122.30278","address":"23 AV / E JEFFERSON ST","id":"1791965"}],"numIncidents":2,"percentage":0.24479804161566704,"numVariance":-2.668571428571428,"percentVariance":-0.32663052981290436},{"name":"Atlantic","incidents":[{"neighborhood":"Central Area","localhood":"Atlantic","type":"DISTURBANCES","lat":"47.6","lng":"-122.30701","address":"19XX BLOCK OF S MAIN ST","id":"1791193"},{"neighborhood":"Central Area","localhood":"Atlantic","type":"TRAFFIC RELATED CALLS","lat":"47.583645","lng":"-122.30034","address":"25 AV S / S WALKER ST","id":"1791194"},{"neighborhood":"Central Area","localhood":"Atlantic","type":"ASSAULTS","lat":"47.599285","lng":"-122.30168","address":"23XX BLOCK OF S JACKSON ST","id":"1791256"},{"neighborhood":"Central Area","localhood":"Atlantic","type":"TRAFFIC RELATED CALLS","lat":"47.58841","lng":"-122.30583","address":"S MASSACHUSETTS ST / RAINIER AV S","id":"1791488"},{"neighborhood":"Central Area","localhood":"Atlantic","type":"THEFT","lat":"47.59926","lng":"-122.30548","address":"20XX BLOCK OF S JACKSON ST","id":"1791587"},{"neighborhood":"Central Area","localhood":"Atlantic","type":"TRAFFIC RELATED CALLS","lat":"47.59587","lng":"-122.31153","address":"RAINIER AV S / S DEARBORN ST","id":"1791655"},{"neighborhood":"Central Area","localhood":"Atlantic","type":"THEFT","lat":"47.599277","lng":"-122.300514","address":"24XX BLOCK OF S JACKSON ST","id":"1791840"},{"neighborhood":"Central Area","localhood":"Atlantic","type":"SUSPICIOUS CIRCUMSTANCES","lat":"47.577522","lng":"-122.29752","address":"RAINIER AV S / S FOREST ST","id":"1791896"},{"neighborhood":"Central Area","localhood":"Atlantic","type":"DISTURBANCES","lat":"47.59961","lng":"-122.31413","address":"3XX BLOCK OF 14 AV S","id":"1791954"},{"neighborhood":"Central Area","localhood":"Atlantic","type":"TRAFFIC RELATED CALLS","lat":"47.57733","lng":"-122.2962","address":"28XX BLOCK OF M L KING JR WY S","id":"1792002"}],"numIncidents":10,"percentage":1.2239902080783354,"numVariance":5.331428571428572,"percentVariance":0.652561636649764},{"name":"Pike-Market","incidents":[{"neighborhood":"Downtown","localhood":"Pike-Market","type":"DISTURBANCES","lat":"47.60786","lng":"-122.34067","address":"14XX BLOCK OF WESTERN AV","id":"1791247"},{"neighborhood":"Downtown","localhood":"Pike-Market","type":"LIQUOR VIOLATIONS","lat":"47.609318","lng":"-122.34047","address":"15XX BLOCK OF 1 AV","id":"1791259"},{"neighborhood":"Downtown","localhood":"Pike-Market","type":"LIQUOR VIOLATIONS","lat":"47.609814","lng":"-122.34288","address":"19XX BLOCK OF WESTERN AV","id":"1791271"},{"neighborhood":"Downtown","localhood":"Pike-Market","type":"DISTURBANCES","lat":"47.610317","lng":"-122.34364","address":"VIRGINIA ST / WESTERN AV","id":"1791372"},{"neighborhood":"Downtown","localhood":"Pike-Market","type":"NARCOTICS COMPLAINTS","lat":"47.609814","lng":"-122.34288","address":"19XX BLOCK OF WESTERN AV","id":"1791478"},{"neighborhood":"Downtown","localhood":"Pike-Market","type":"TRESPASS","lat":"47.61079","lng":"-122.344124","address":"20XX BLOCK OF WESTERN AV","id":"1791545"},{"neighborhood":"Downtown","localhood":"Pike-Market","type":"NARCOTICS COMPLAINTS","lat":"47.609055","lng":"-122.33946","address":"1XX BLOCK OF PIKE ST","id":"1791577"},{"neighborhood":"Downtown","localhood":"Pike-Market","type":"DISTURBANCES","lat":"47.609993","lng":"-122.346306","address":"ALASKAN WY / LENORA ST","id":"1791572"},{"neighborhood":"Downtown","localhood":"Pike-Market","type":"NARCOTICS COMPLAINTS","lat":"47.609814","lng":"-122.34288","address":"19XX BLOCK OF WESTERN AV","id":"1791609"},{"neighborhood":"Downtown","localhood":"Pike-Market","type":"THREATS, HARASSMENT","lat":"47.60786","lng":"-122.34067","address":"14XX BLOCK OF WESTERN AV","id":"1791778"},{"neighborhood":"Downtown","localhood":"Pike-Market","type":"LIQUOR VIOLATIONS","lat":"47.609814","lng":"-122.34288","address":"19XX BLOCK OF WESTERN AV","id":"1791769"},{"neighborhood":"Downtown","localhood":"Pike-Market","type":"BURGLARY ALACAD (FALSE)","lat":"47.61079","lng":"-122.344124","address":"20XX BLOCK OF WESTERN AV","id":"1791799"},{"neighborhood":"Downtown","localhood":"Pike-Market","type":"LIQUOR VIOLATIONS","lat":"47.609814","lng":"-122.34288","address":"19XX BLOCK OF WESTERN AV","id":"1791918"},{"neighborhood":"Downtown","localhood":"Pike-Market","type":"CAR PROWL","lat":"47.61117","lng":"-122.34477","address":"WESTERN AV / LENORA ST","id":"1791943"},{"neighborhood":"Downtown","localhood":"Pike-Market","type":"LIQUOR VIOLATIONS","lat":"47.609055","lng":"-122.33946","address":"1XX BLOCK OF PIKE ST","id":"1791984"},{"neighborhood":"Downtown","localhood":"Pike-Market","type":"LIQUOR VIOLATIONS","lat":"47.609814","lng":"-122.34288","address":"19XX BLOCK OF WESTERN AV","id":"1792014"}],"numIncidents":16,"percentage":1.9583843329253363,"numVariance":11.331428571428571,"percentVariance":1.386955761496765},{"name":"Belltown","incidents":[{"neighborhood":"Downtown","localhood":"Belltown","type":"THEFT","lat":"47.617676","lng":"-122.34188","address":"23XX BLOCK OF 7 AV","id":"1791200"},{"neighborhood":"Downtown","localhood":"Belltown","type":"NARCOTICS COMPLAINTS","lat":"47.61371","lng":"-122.346085","address":"1XX BLOCK OF BELL ST","id":"1791217"},{"neighborhood":"Downtown","localhood":"Belltown","type":"CAR PROWL","lat":"47.6125","lng":"-122.343056","address":"2 AV / LENORA ST","id":"1791228"},{"neighborhood":"Downtown","localhood":"Belltown","type":"DISTURBANCES","lat":"47.614986","lng":"-122.33184","address":"TERRY AV / OLIVE WY","id":"1791246"},{"neighborhood":"Downtown","localhood":"Belltown","type":"TRAFFIC RELATED CALLS","lat":"47.61684","lng":"-122.33056","address":"MINOR AV / HOWELL ST","id":"1791279"},{"neighborhood":"Downtown","localhood":"Belltown","type":"DISTURBANCES","lat":"47.61733","lng":"-122.33337","address":"19XX BLOCK OF BOREN AV","id":"1791314"},{"neighborhood":"Downtown","localhood":"Belltown","type":"SUSPICIOUS CIRCUMSTANCES","lat":"47.613373","lng":"-122.34651","address":"1 AV / BELL ST","id":"1791322"},{"neighborhood":"Downtown","localhood":"Belltown","type":"SUSPICIOUS CIRCUMSTANCES","lat":"47.617023","lng":"-122.34574","address":"4XX BLOCK OF WALL ST","id":"1791329"},{"neighborhood":"Downtown","localhood":"Belltown","type":"SUSPICIOUS CIRCUMSTANCES","lat":"47.613655","lng":"-122.345","address":"22XX BLOCK OF 2 AV","id":"1791338"},{"neighborhood":"Downtown","localhood":"Belltown","type":"RESIDENTIAL BURGLARIES","lat":"47.61564","lng":"-122.34836","address":"25XX BLOCK OF 2 AV","id":"1791375"},{"neighborhood":"Downtown","localhood":"Belltown","type":"CAR PROWL","lat":"47.612015","lng":"-122.34024","address":"19XX BLOCK OF 3 AV","id":"1791396"},{"neighborhood":"Downtown","localhood":"Belltown","type":"DISTURBANCES","lat":"47.612045","lng":"-122.34823","address":"BELL ST / ELLIOTT AV","id":"1791436"},{"neighborhood":"Downtown","localhood":"Belltown","type":"TRAFFIC RELATED CALLS","lat":"47.612396","lng":"-122.3409","address":"3 AV / VIRGINIA ST","id":"1791463"},{"neighborhood":"Downtown","localhood":"Belltown","type":"TRESPASS","lat":"47.61733","lng":"-122.33337","address":"19XX BLOCK OF BOREN AV","id":"1791449"},{"neighborhood":"Downtown","localhood":"Belltown","type":"SUSPICIOUS CIRCUMSTANCES","lat":"47.612377","lng":"-122.3478","address":"XX BLOCK OF BELL ST","id":"1791464"},{"neighborhood":"Downtown","localhood":"Belltown","type":"TRAFFIC RELATED CALLS","lat":"47.61421","lng":"-122.347565","address":"BATTERY ST TN / NB","id":"1791481"},{"neighborhood":"Downtown","localhood":"Belltown","type":"TRESPASS","lat":"47.614704","lng":"-122.344795","address":"3 AV / BELL ST","id":"1791476"},{"neighborhood":"Downtown","localhood":"Belltown","type":"THEFT","lat":"47.61278","lng":"-122.341545","address":"20XX BLOCK OF 3 AV","id":"1791559"},{"neighborhood":"Downtown","localhood":"Belltown","type":"NUISANCE, MISCHIEF COMPLAINTS","lat":"47.612835","lng":"-122.34262","address":"2XX BLOCK OF LENORA ST","id":"1791594"},{"neighborhood":"Downtown","localhood":"Belltown","type":"CAR PROWL","lat":"47.61161","lng":"-122.346535","address":"ELLIOTT AV / BLANCHARD ST","id":"1791613"},{"neighborhood":"Downtown","localhood":"Belltown","type":"DISTURBANCES","lat":"47.613163","lng":"-122.34219","address":"3 AV / LENORA ST","id":"1791605"},{"neighborhood":"Downtown","localhood":"Belltown","type":"TRAFFIC RELATED CALLS","lat":"47.612713","lng":"-122.347374","address":"ALASKAN WY VI NB / WESTERN AV","id":"1791610"},{"neighborhood":"Downtown","localhood":"Belltown","type":"TRESPASS","lat":"47.612957","lng":"-122.337875","address":"5 AV / STEWART ST","id":"1791614"},{"neighborhood":"Downtown","localhood":"Belltown","type":"LIQUOR VIOLATIONS","lat":"47.61733","lng":"-122.33337","address":"19XX BLOCK OF BOREN AV","id":"1791638"},{"neighborhood":"Downtown","localhood":"Belltown","type":"PARKING VIOLATIONS","lat":"47.617172","lng":"-122.33013","address":"12XX BLOCK OF HOWELL ST","id":"1791662"},{"neighborhood":"Downtown","localhood":"Belltown","type":"ASSAULTS","lat":"47.618237","lng":"-122.329155","address":"18XX BLOCK OF EASTLAKE AV","id":"1791639"},{"neighborhood":"Downtown","localhood":"Belltown","type":"LIQUOR VIOLATIONS","lat":"47.61733","lng":"-122.33337","address":"19XX BLOCK OF BOREN AV","id":"1791632"},{"neighborhood":"Downtown","localhood":"Belltown","type":"TRAFFIC RELATED CALLS","lat":"47.61483","lng":"-122.337746","address":"VIRGINIA ST / WESTLAKE AV","id":"1791643"},{"neighborhood":"Downtown","localhood":"Belltown","type":"THEFT","lat":"47.616856","lng":"-122.348434","address":"26XX BLOCK OF 3 AV","id":"1791666"},{"neighborhood":"Downtown","localhood":"Belltown","type":"PARKING VIOLATIONS","lat":"47.611347","lng":"-122.3411","address":"19XX BLOCK OF 2 AV","id":"1791658"},{"neighborhood":"Downtown","localhood":"Belltown","type":"PARKING VIOLATIONS","lat":"47.6125","lng":"-122.343056","address":"2 AV / LENORA ST","id":"1791680"},{"neighborhood":"Downtown","localhood":"Belltown","type":"NARCOTICS COMPLAINTS","lat":"47.612423","lng":"-122.33797","address":"4XX BLOCK OF OLIVE WY","id":"1791701"},{"neighborhood":"Downtown","localhood":"Belltown","type":"TRAFFIC RELATED CALLS","lat":"47.61401","lng":"-122.347855","address":"ALASKAN WY VI SB / BATTERY ST TN SB","id":"1791710"},{"neighborhood":"Downtown","localhood":"Belltown","type":"CASUALTIES","lat":"47.61222","lng":"-122.34457","address":"21XX BLOCK OF 1 AV","id":"1791727"},{"neighborhood":"Downtown","localhood":"Belltown","type":"NARCOTICS COMPLAINTS","lat":"47.61432","lng":"-122.34415","address":"22XX BLOCK OF 3 AV","id":"1791745"},{"neighborhood":"Downtown","localhood":"Belltown","type":"PARKS EXCLUSIONS","lat":"47.612984","lng":"-122.33741","address":"18XX BLOCK OF WESTLAKE AV","id":"1792057"},{"neighborhood":"Downtown","localhood":"Belltown","type":"ASSAULTS","lat":"47.615086","lng":"-122.34742","address":"24XX BLOCK OF 2 AV","id":"1791777"},{"neighborhood":"Downtown","localhood":"Belltown","type":"TRESPASS","lat":"47.612957","lng":"-122.337875","address":"5 AV / STEWART ST","id":"1791771"},{"neighborhood":"Downtown","localhood":"Belltown","type":"PERSONS - LOST, FOUND, MISSING","lat":"47.61289","lng":"-122.343704","address":"21XX BLOCK OF 2 AV","id":"1791776"},{"neighborhood":"Downtown","localhood":"Belltown","type":"DISTURBANCES","lat":"47.618237","lng":"-122.329155","address":"18XX BLOCK OF EASTLAKE AV","id":"1791844"},{"neighborhood":"Downtown","localhood":"Belltown","type":"TRESPASS","lat":"47.61177","lng":"-122.3463","address":"XX BLOCK OF BLANCHARD ST","id":"1791841"},{"neighborhood":"Downtown","localhood":"Belltown","type":"NARCOTICS COMPLAINTS","lat":"47.61278","lng":"-122.341545","address":"20XX BLOCK OF 3 AV","id":"1791865"},{"neighborhood":"Downtown","localhood":"Belltown","type":"TRESPASS","lat":"47.61733","lng":"-122.33337","address":"19XX BLOCK OF BOREN AV","id":"1791857"},{"neighborhood":"Downtown","localhood":"Belltown","type":"DISTURBANCES","lat":"47.613552","lng":"-122.34284","address":"21XX BLOCK OF 3 AV","id":"1791872"},{"neighborhood":"Downtown","localhood":"Belltown","type":"AUTO THEFTS","lat":"47.61243","lng":"-122.348885","address":"23XX BLOCK OF ELLIOTT AV","id":"1791913"},{"neighborhood":"Downtown","localhood":"Belltown","type":"DISTURBANCES","lat":"47.614704","lng":"-122.344795","address":"3 AV / BELL ST","id":"1791898"},{"neighborhood":"Downtown","localhood":"Belltown","type":"DISTURBANCES","lat":"47.612606","lng":"-122.345215","address":"1 AV / BLANCHARD ST","id":"1791946"},{"neighborhood":"Downtown","localhood":"Belltown","type":"BURGLARY ALACAD (FALSE)","lat":"47.613758","lng":"-122.34716","address":"23XX BLOCK OF 1 AV","id":"1791987"}],"numIncidents":48,"percentage":5.87515299877601,"numVariance":43.331428571428575,"percentVariance":5.303724427347439},{"name":"International District","incidents":[{"neighborhood":"Downtown","localhood":"International District","type":"DISTURBANCES","lat":"47.59834","lng":"-122.31723","address":"12 AV S / S KING ST","id":"1791354"},{"neighborhood":"Downtown","localhood":"International District","type":"TRESPASS","lat":"47.598347","lng":"-122.32245","address":"8 AV S / S KING ST","id":"1791359"},{"neighborhood":"Downtown","localhood":"International District","type":"SUSPICIOUS CIRCUMSTANCES","lat":"47.598335","lng":"-122.315315","address":"12XX BLOCK OF S KING ST","id":"1791369"},{"neighborhood":"Downtown","localhood":"International District","type":"ASSAULTS","lat":"47.59919","lng":"-122.32506","address":"S JACKSON ST / MAYNARD AV S","id":"1791412"},{"neighborhood":"Downtown","localhood":"International District","type":"TRAFFIC RELATED CALLS","lat":"47.59583","lng":"-122.322464","address":"8 AV S / S DEARBORN ST","id":"1791413"},{"neighborhood":"Downtown","localhood":"International District","type":"PROWLER","lat":"47.598347","lng":"-122.321045","address":"9XX BLOCK OF S KING ST","id":"1791445"},{"neighborhood":"Downtown","localhood":"International District","type":"SUSPICIOUS CIRCUMSTANCES","lat":"47.596252","lng":"-122.32246","address":"7XX BLOCK OF 8 AV S","id":"1791450"},{"neighborhood":"Downtown","localhood":"International District","type":"TRAFFIC RELATED CALLS","lat":"47.597507","lng":"-122.32245","address":"S WELLER ST / 8 AV S","id":"1791483"},{"neighborhood":"Downtown","localhood":"International District","type":"NUISANCE, MISCHIEF COMPLAINTS","lat":"47.599194","lng":"-122.32701","address":"5XX BLOCK OF S JACKSON ST","id":"1791498"},{"neighborhood":"Downtown","localhood":"International District","type":"COMMERCIAL BURGLARIES","lat":"47.599194","lng":"-122.32571","address":"6XX BLOCK OF S JACKSON ST","id":"1791536"},{"neighborhood":"Downtown","localhood":"International District","type":"SUSPICIOUS CIRCUMSTANCES","lat":"47.59919","lng":"-122.32636","address":"6 AV S / S JACKSON ST","id":"1791580"},{"neighborhood":"Downtown","localhood":"International District","type":"SUSPICIOUS CIRCUMSTANCES","lat":"47.59667","lng":"-122.32207","address":"8XX BLOCK OF S LANE ST","id":"1791598"},{"neighborhood":"Downtown","localhood":"International District","type":"SUSPICIOUS CIRCUMSTANCES","lat":"47.598347","lng":"-122.31965","address":"10 AV S / S KING ST","id":"1791625"},{"neighborhood":"Downtown","localhood":"International District","type":"NUISANCE, MISCHIEF COMPLAINTS","lat":"47.599194","lng":"-122.32767","address":"5 AV S / S JACKSON ST","id":"1791615"},{"neighborhood":"Downtown","localhood":"International District","type":"AUTO RECOVERIES","lat":"47.598347","lng":"-122.31965","address":"10 AV S / S KING ST","id":"1791624"},{"neighborhood":"Downtown","localhood":"International District","type":"THEFT","lat":"47.596653","lng":"-122.31344","address":"14XX BLOCK OF S LANE ST","id":"1791636"},{"neighborhood":"Downtown","localhood":"International District","type":"PROWLER","lat":"47.59835","lng":"-122.32506","address":"MAYNARD AV S / S KING ST","id":"1791635"},{"neighborhood":"Downtown","localhood":"International District","type":"DISTURBANCES","lat":"47.597496","lng":"-122.314995","address":"12XX BLOCK OF S WELLER ST","id":"1791676"},{"neighborhood":"Downtown","localhood":"International District","type":"NUISANCE, MISCHIEF COMPLAINTS","lat":"47.598347","lng":"-122.31965","address":"10 AV S / S KING ST","id":"1791670"},{"neighborhood":"Downtown","localhood":"International District","type":"SUSPICIOUS CIRCUMSTANCES","lat":"47.60003","lng":"-122.32636","address":"6 AV S / S MAIN ST","id":"1791668"},{"neighborhood":"Downtown","localhood":"International District","type":"THEFT","lat":"47.596653","lng":"-122.31344","address":"14XX BLOCK OF S LANE ST","id":"1791705"},{"neighborhood":"Downtown","localhood":"International District","type":"THEFT","lat":"47.596653","lng":"-122.31344","address":"14XX BLOCK OF S LANE ST","id":"1791685"},{"neighborhood":"Downtown","localhood":"International District","type":"THEFT","lat":"47.596657","lng":"-122.32768","address":"6XX BLOCK OF 5 AV S","id":"1791760"},{"neighborhood":"Downtown","localhood":"International District","type":"THEFT","lat":"47.596653","lng":"-122.31344","address":"14XX BLOCK OF S LANE ST","id":"1791762"},{"neighborhood":"Downtown","localhood":"International District","type":"PROPERTY DAMAGE","lat":"47.59919","lng":"-122.31722","address":"12 AV S / S JACKSON ST","id":"1791838"},{"neighborhood":"Downtown","localhood":"International District","type":"THEFT","lat":"47.596653","lng":"-122.31344","address":"14XX BLOCK OF S LANE ST","id":"1791922"},{"neighborhood":"Downtown","localhood":"International District","type":"THEFT","lat":"47.596657","lng":"-122.32768","address":"6XX BLOCK OF 5 AV S","id":"1791930"},{"neighborhood":"Downtown","localhood":"International District","type":"PARKING VIOLATIONS","lat":"47.599186","lng":"-122.32245","address":"8 AV S / S JACKSON ST","id":"1791988"}],"numIncidents":28,"percentage":3.4271725826193387,"numVariance":23.33142857142857,"percentVariance":2.855744011190767},{"name":"Central Business District","incidents":[{"neighborhood":"Downtown","localhood":"Central Business District","type":"THEFT","lat":"47.60998","lng":"-122.337234","address":"3XX BLOCK OF PIKE ST","id":"1791213"},{"neighborhood":"Downtown","localhood":"Central Business District","type":"LIQUOR VIOLATIONS","lat":"47.611206","lng":"-122.33759","address":"4 AV / PINE ST","id":"1791221"},{"neighborhood":"Downtown","localhood":"Central Business District","type":"TRESPASS","lat":"47.61283","lng":"-122.33371","address":"7XX BLOCK OF PINE ST","id":"1791242"},{"neighborhood":"Downtown","localhood":"Central Business District","type":"LIQUOR VIOLATIONS","lat":"47.60975","lng":"-122.33779","address":"3 AV / PIKE ST","id":"1791241"},{"neighborhood":"Downtown","localhood":"Central Business District","type":"TRESPASS","lat":"47.611904","lng":"-122.33593","address":"5XX BLOCK OF PINE ST","id":"1791265"},{"neighborhood":"Downtown","localhood":"Central Business District","type":"BURGLARY ALACAD (FALSE)","lat":"47.61044","lng":"-122.33689","address":"15XX BLOCK OF 4 AV","id":"1791352"},{"neighborhood":"Downtown","localhood":"Central Business District","type":"DISTURBANCES","lat":"47.609253","lng":"-122.33734","address":"14XX BLOCK OF 3 AV","id":"1791358"},{"neighborhood":"Downtown","localhood":"Central Business District","type":"DISTURBANCES","lat":"47.60384","lng":"-122.33239","address":"7XX BLOCK OF 3 AV","id":"1791361"},{"neighborhood":"Downtown","localhood":"Central Business District","type":"PARKING VIOLATIONS","lat":"47.607285","lng":"-122.33477","address":"3XX BLOCK OF SENECA ST","id":"1791367"},{"neighborhood":"Downtown","localhood":"Central Business District","type":"THEFT","lat":"47.608788","lng":"-122.33845","address":"14XX BLOCK OF 2 AV","id":"1791397"},{"neighborhood":"Downtown","localhood":"Central Business District","type":"DISTURBANCES","lat":"47.604908","lng":"-122.33337","address":"3 AV / MARION ST","id":"1791416"},{"neighborhood":"Downtown","localhood":"Central Business District","type":"THEFT","lat":"47.61132","lng":"-122.33732","address":"4XX BLOCK OF PINE ST","id":"1791446"},{"neighborhood":"Downtown","localhood":"Central Business District","type":"NUISANCE, MISCHIEF COMPLAINTS","lat":"47.611206","lng":"-122.33759","address":"4 AV / PINE ST","id":"1791461"},{"neighborhood":"Downtown","localhood":"Central Business District","type":"SUSPICIOUS CIRCUMSTANCES","lat":"47.61237","lng":"-122.334816","address":"6XX BLOCK OF PINE ST","id":"1791460"},{"neighborhood":"Downtown","localhood":"Central Business District","type":"CAR PROWL","lat":"47.60922","lng":"-122.33578","address":"4 AV / UNION ST","id":"1791482"},{"neighborhood":"Downtown","localhood":"Central Business District","type":"DISTURBANCES","lat":"47.603733","lng":"-122.33383","address":"2 AV / COLUMBIA ST","id":"1791485"},{"neighborhood":"Downtown","localhood":"Central Business District","type":"THEFT","lat":"47.611904","lng":"-122.33593","address":"5XX BLOCK OF PINE ST","id":"1791497"},{"neighborhood":"Downtown","localhood":"Central Business District","type":"THEFT","lat":"47.60975","lng":"-122.33779","address":"3 AV / PIKE ST","id":"1791499"},{"neighborhood":"Downtown","localhood":"Central Business District","type":"NUISANCE, MISCHIEF COMPLAINTS","lat":"47.611904","lng":"-122.33593","address":"5XX BLOCK OF PINE ST","id":"1791530"},{"neighborhood":"Downtown","localhood":"Central Business District","type":"NUISANCE, MISCHIEF COMPLAINTS","lat":"47.611904","lng":"-122.33593","address":"5XX BLOCK OF PINE ST","id":"1791529"},{"neighborhood":"Downtown","localhood":"Central Business District","type":"DISTURBANCES","lat":"47.610214","lng":"-122.336685","address":"4 AV / PIKE ST","id":"1791549"},{"neighborhood":"Downtown","localhood":"Central Business District","type":"PARKING VIOLATIONS","lat":"47.607597","lng":"-122.33965","address":"POST AL / UNION ST","id":"1791561"},{"neighborhood":"Downtown","localhood":"Central Business District","type":"THEFT","lat":"47.61237","lng":"-122.334816","address":"6XX BLOCK OF PINE ST","id":"1791552"},{"neighborhood":"Downtown","localhood":"Central Business District","type":"SUSPICIOUS CIRCUMSTANCES","lat":"47.6064","lng":"-122.3298","address":"I5 SB COLLECTOR / JAMES ST OFF RP","id":"1791564"},{"neighborhood":"Downtown","localhood":"Central Business District","type":"NUISANCE, MISCHIEF COMPLAINTS","lat":"47.612137","lng":"-122.33537","address":"6 AV / PINE ST","id":"1791557"},{"neighborhood":"Downtown","localhood":"Central Business District","type":"NUISANCE, MISCHIEF COMPLAINTS","lat":"47.603516","lng":"-122.33669","address":"WESTERN AV / MARION ST","id":"1791590"},{"neighborhood":"Downtown","localhood":"Central Business District","type":"DISTURBANCES","lat":"47.604553","lng":"-122.33304","address":"8XX BLOCK OF 3 AV","id":"1791612"},{"neighborhood":"Downtown","localhood":"Central Business District","type":"TRAFFIC RELATED CALLS","lat":"47.60846","lng":"-122.33431","address":"4XX BLOCK OF UNIVERSITY ST","id":"1791644"},{"neighborhood":"Downtown","localhood":"Central Business District","type":"NARCOTICS COMPLAINTS","lat":"47.604553","lng":"-122.33304","address":"8XX BLOCK OF 3 AV","id":"1791642"},{"neighborhood":"Downtown","localhood":"Central Business District","type":"THEFT","lat":"47.61132","lng":"-122.33732","address":"4XX BLOCK OF PINE ST","id":"1791656"},{"neighborhood":"Downtown","localhood":"Central Business District","type":"THEFT","lat":"47.606197","lng":"-122.331474","address":"9XX BLOCK OF 5 AV","id":"1791702"},{"neighborhood":"Downtown","localhood":"Central Business District","type":"NUISANCE, MISCHIEF COMPLAINTS","lat":"47.611904","lng":"-122.33593","address":"5XX BLOCK OF PINE ST","id":"1791686"},{"neighborhood":"Downtown","localhood":"Central Business District","type":"SUSPICIOUS CIRCUMSTANCES","lat":"47.606445","lng":"-122.33324","address":"10XX BLOCK OF 4 AV","id":"1791704"},{"neighborhood":"Downtown","localhood":"Central Business District","type":"DISTURBANCES","lat":"47.612167","lng":"-122.33694","address":"16XX BLOCK OF 5 AV","id":"1791730"},{"neighborhood":"Downtown","localhood":"Central Business District","type":"THEFT","lat":"47.61132","lng":"-122.33732","address":"4XX BLOCK OF PINE ST","id":"1791734"},{"neighborhood":"Downtown","localhood":"Central Business District","type":"NUISANCE, MISCHIEF COMPLAINTS","lat":"47.609516","lng":"-122.33835","address":"2XX BLOCK OF PIKE ST","id":"1791733"},{"neighborhood":"Downtown","localhood":"Central Business District","type":"CAR PROWL","lat":"47.609653","lng":"-122.3331","address":"13XX BLOCK OF 6 AV","id":"1791791"},{"neighborhood":"Downtown","localhood":"Central Business District","type":"THEFT","lat":"47.609253","lng":"-122.33734","address":"14XX BLOCK OF 3 AV","id":"1791782"},{"neighborhood":"Downtown","localhood":"Central Business District","type":"SUSPICIOUS CIRCUMSTANCES","lat":"47.606552","lng":"-122.3318","address":"5 AV / MADISON ST","id":"1791770"},{"neighborhood":"Downtown","localhood":"Central Business District","type":"SUSPICIOUS CIRCUMSTANCES","lat":"47.6126","lng":"-122.33426","address":"7 AV / PINE ST","id":"1791790"},{"neighborhood":"Downtown","localhood":"Central Business District","type":"LIQUOR VIOLATIONS","lat":"47.610744","lng":"-122.3387","address":"3 AV / PINE ST","id":"1791827"},{"neighborhood":"Downtown","localhood":"Central Business District","type":"LIQUOR VIOLATIONS","lat":"47.610744","lng":"-122.3387","address":"3 AV / PINE ST","id":"1791861"},{"neighborhood":"Downtown","localhood":"Central Business District","type":"LIQUOR VIOLATIONS","lat":"47.610973","lng":"-122.33815","address":"3XX BLOCK OF PINE ST","id":"1791856"},{"neighborhood":"Downtown","localhood":"Central Business District","type":"LIQUOR VIOLATIONS","lat":"47.611607","lng":"-122.33335","address":"7 AV / PIKE ST","id":"1791873"},{"neighborhood":"Downtown","localhood":"Central Business District","type":"DISTURBANCES","lat":"47.604588","lng":"-122.33768","address":"10XX BLOCK OF WESTERN AV","id":"1791876"},{"neighborhood":"Downtown","localhood":"Central Business District","type":"NARCOTICS COMPLAINTS","lat":"47.609253","lng":"-122.33734","address":"14XX BLOCK OF 3 AV","id":"1791893"},{"neighborhood":"Downtown","localhood":"Central Business District","type":"ROBBERY","lat":"47.60975","lng":"-122.33779","address":"3 AV / PIKE ST","id":"1791944"},{"neighborhood":"Downtown","localhood":"Central Business District","type":"TRESPASS","lat":"47.60648","lng":"-122.33787","address":"12XX BLOCK OF 1 AV","id":"1791921"},{"neighborhood":"Downtown","localhood":"Central Business District","type":"CASUALTIES","lat":"47.60705","lng":"-122.33533","address":"SENECA ST / 3 AV","id":"1791942"},{"neighborhood":"Downtown","localhood":"Central Business District","type":"DISTURBANCES","lat":"47.610245","lng":"-122.33825","address":"15XX BLOCK OF 3 AV","id":"1791950"},{"neighborhood":"Downtown","localhood":"Central Business District","type":"CAR PROWL","lat":"47.61237","lng":"-122.334816","address":"6XX BLOCK OF PINE ST","id":"1791959"},{"neighborhood":"Downtown","localhood":"Central Business District","type":"CAR PROWL","lat":"47.61237","lng":"-122.334816","address":"6XX BLOCK OF PINE ST","id":"1791976"},{"neighborhood":"Downtown","localhood":"Central Business District","type":"LIQUOR VIOLATIONS","lat":"47.610744","lng":"-122.3387","address":"PINE ST / 3 AV","id":"1791966"},{"neighborhood":"Downtown","localhood":"Central Business District","type":"ANIMAL COMPLAINTS","lat":"47.612103","lng":"-122.33381","address":"15XX BLOCK OF 7 AV","id":"1791978"},{"neighborhood":"Downtown","localhood":"Central Business District","type":"TRESPASS","lat":"47.605484","lng":"-122.33082","address":"8XX BLOCK OF 5 AV","id":"1791989"},{"neighborhood":"Downtown","localhood":"Central Business District","type":"LIQUOR VIOLATIONS","lat":"47.60975","lng":"-122.33779","address":"3 AV / PIKE ST","id":"1792000"}],"numIncidents":56,"percentage":6.854345165238677,"numVariance":51.331428571428575,"percentVariance":6.282916593810106},{"name":"First Hill","incidents":[{"neighborhood":"Downtown","localhood":"First Hill","type":"TRAFFIC RELATED CALLS","lat":"47.610977","lng":"-122.31678","address":"9XX BLOCK OF 12 AV","id":"1791166"},{"neighborhood":"Downtown","localhood":"First Hill","type":"LIQUOR VIOLATIONS","lat":"47.613438","lng":"-122.32736","address":"14XX BLOCK OF MINOR AV","id":"1791183"},{"neighborhood":"Downtown","localhood":"First Hill","type":"TRAFFIC RELATED CALLS","lat":"47.61211","lng":"-122.32076","address":"11XX BLOCK OF BROADWAY","id":"1791206"},{"neighborhood":"Downtown","localhood":"First Hill","type":"CRISIS CALL","lat":"47.607216","lng":"-122.320755","address":"BROADWAY / JAMES ST","id":"1791238"},{"neighborhood":"Downtown","localhood":"First Hill","type":"NARCOTICS COMPLAINTS","lat":"47.613518","lng":"-122.32077","address":"14XX BLOCK OF BROADWAY","id":"1791399"},{"neighborhood":"Downtown","localhood":"First Hill","type":"CAR PROWL","lat":"47.61226","lng":"-122.33001","address":"14XX BLOCK OF HUBBELL PL","id":"1791447"},{"neighborhood":"Downtown","localhood":"First Hill","type":"ASSAULTS","lat":"47.613697","lng":"-122.32836","address":"11XX BLOCK OF PIKE ST","id":"1791474"},{"neighborhood":"Downtown","localhood":"First Hill","type":"ANIMAL COMPLAINTS","lat":"47.611942","lng":"-122.32599","address":"UNIVERSITY ST / MINOR AV","id":"1791575"},{"neighborhood":"Downtown","localhood":"First Hill","type":"LIQUOR VIOLATIONS","lat":"47.608177","lng":"-122.32792","address":"8XX BLOCK OF MADISON ST","id":"1791571"},{"neighborhood":"Downtown","localhood":"First Hill","type":"THREATS, HARASSMENT","lat":"47.610035","lng":"-122.32347","address":"12XX BLOCK OF MADISON ST","id":"1791653"},{"neighborhood":"Downtown","localhood":"First Hill","type":"DISTURBANCES","lat":"47.60937","lng":"-122.32978","address":"8 AV / SENECA ST","id":"1791803"},{"neighborhood":"Downtown","localhood":"First Hill","type":"CAR PROWL","lat":"47.61296","lng":"-122.32076","address":"E UNION ST / BROADWAY","id":"1791868"},{"neighborhood":"Downtown","localhood":"First Hill","type":"CRISIS CALL","lat":"47.608017","lng":"-122.322395","address":"7XX BLOCK OF MINOR AV","id":"1791903"},{"neighborhood":"Downtown","localhood":"First Hill","type":"NARCOTICS COMPLAINTS","lat":"47.60957","lng":"-122.324585","address":"11XX BLOCK OF MADISON ST","id":"1791911"}],"numIncidents":14,"percentage":1.7135862913096693,"numVariance":9.331428571428571,"percentVariance":1.142157719881098},{"name":"Yesler Terrace","incidents":[{"neighborhood":"Downtown","localhood":"Yesler Terrace","type":"HAZARDS","lat":"47.602196","lng":"-122.32074","address":"1XX BLOCK OF BROADWAY","id":"1791337"},{"neighborhood":"Downtown","localhood":"Yesler Terrace","type":"ASSAULTS","lat":"47.60413","lng":"-122.32344","address":"3XX BLOCK OF 9 AV","id":"1791389"},{"neighborhood":"Downtown","localhood":"Yesler Terrace","type":"PARKING VIOLATIONS","lat":"47.604355","lng":"-122.31811","address":"11 AV / E ALDER ST","id":"1791405"},{"neighborhood":"Downtown","localhood":"Yesler Terrace","type":"TRAFFIC RELATED CALLS","lat":"47.601692","lng":"-122.31678","address":"12 AV / E YESLER WY","id":"1791442"},{"neighborhood":"Downtown","localhood":"Yesler Terrace","type":"PERSONS - LOST, FOUND, MISSING","lat":"47.600876","lng":"-122.31868","address":"10XX BLOCK OF S WASHINGTON ST","id":"1791490"},{"neighborhood":"Downtown","localhood":"Yesler Terrace","type":"CRISIS CALL","lat":"47.60484","lng":"-122.3241","address":"9 AV / JEFFERSON ST","id":"1791466"},{"neighborhood":"Downtown","localhood":"Yesler Terrace","type":"THEFT","lat":"47.60572","lng":"-122.32075","address":"4XX BLOCK OF BROADWAY","id":"1791551"},{"neighborhood":"Downtown","localhood":"Yesler Terrace","type":"NUISANCE, MISCHIEF COMPLAINTS","lat":"47.60462","lng":"-122.32697","address":"7 AV / JAMES ST","id":"1791578"},{"neighborhood":"Downtown","localhood":"Yesler Terrace","type":"TRAFFIC RELATED CALLS","lat":"47.60484","lng":"-122.3241","address":"JEFFERSON ST / 9 AV","id":"1791618"},{"neighborhood":"Downtown","localhood":"Yesler Terrace","type":"SUSPICIOUS CIRCUMSTANCES","lat":"47.605072","lng":"-122.32354","address":"9XX BLOCK OF JEFFERSON ST","id":"1791657"},{"neighborhood":"Downtown","localhood":"Yesler Terrace","type":"TRAFFIC RELATED CALLS","lat":"47.60484","lng":"-122.3241","address":"JEFFERSON ST / 9 AV","id":"1791682"},{"neighborhood":"Downtown","localhood":"Yesler Terrace","type":"TRAFFIC RELATED CALLS","lat":"47.599182","lng":"-122.31964","address":"S JACKSON ST / 10 AV S","id":"1791979"}],"numIncidents":12,"percentage":1.4687882496940026,"numVariance":7.331428571428572,"percentVariance":0.8973596782654312},{"name":"Pioneer Square","incidents":[{"neighborhood":"Downtown","localhood":"Pioneer Square","type":"LIQUOR VIOLATIONS","lat":"47.600464","lng":"-122.33081","address":"3XX BLOCK OF 2 AV S","id":"1791182"},{"neighborhood":"Downtown","localhood":"Pioneer Square","type":"DISTURBANCES","lat":"47.602413","lng":"-122.331085","address":"5XX BLOCK OF 3 AV","id":"1791209"},{"neighborhood":"Downtown","localhood":"Pioneer Square","type":"LIQUOR VIOLATIONS","lat":"47.602413","lng":"-122.331085","address":"5XX BLOCK OF 3 AV","id":"1791264"},{"neighborhood":"Downtown","localhood":"Pioneer Square","type":"TRAFFIC RELATED CALLS","lat":"47.59829","lng":"-122.3342","address":"1 AV S / S KING ST","id":"1791266"},{"neighborhood":"Downtown","localhood":"Pioneer Square","type":"LIQUOR VIOLATIONS","lat":"47.602413","lng":"-122.331085","address":"5XX BLOCK OF 3 AV","id":"1791275"},{"neighborhood":"Downtown","localhood":"Pioneer Square","type":"SUSPICIOUS CIRCUMSTANCES","lat":"47.601723","lng":"-122.33418","address":"1 AV / YESLER WY","id":"1791304"},{"neighborhood":"Downtown","localhood":"Pioneer Square","type":"THEFT","lat":"47.602913","lng":"-122.33461","address":"7XX BLOCK OF 1 AV","id":"1791318"},{"neighborhood":"Downtown","localhood":"Pioneer Square","type":"DISTURBANCES","lat":"47.60215","lng":"-122.334175","address":"6XX BLOCK OF 1 AV","id":"1791332"},{"neighborhood":"Downtown","localhood":"Pioneer Square","type":"LIQUOR VIOLATIONS","lat":"47.600464","lng":"-122.33081","address":"3XX BLOCK OF 2 AV S","id":"1791334"},{"neighborhood":"Downtown","localhood":"Pioneer Square","type":"DISTURBANCES","lat":"47.601723","lng":"-122.33418","address":"1 AV / YESLER WY","id":"1791335"},{"neighborhood":"Downtown","localhood":"Pioneer Square","type":"TRESPASS","lat":"47.601303","lng":"-122.33418","address":"1XX BLOCK OF 1 AV S","id":"1791333"},{"neighborhood":"Downtown","localhood":"Pioneer Square","type":"SUSPICIOUS CIRCUMSTANCES","lat":"47.602787","lng":"-122.333725","address":"1XX BLOCK OF CHERRY ST","id":"1791345"},{"neighborhood":"Downtown","localhood":"Pioneer Square","type":"LIQUOR VIOLATIONS","lat":"47.600464","lng":"-122.33081","address":"3XX BLOCK OF 2 AV S","id":"1791343"},{"neighborhood":"Downtown","localhood":"Pioneer Square","type":"DISTURBANCES","lat":"47.598747","lng":"-122.332886","address":"4XX BLOCK OF OCCIDENTAL AV S","id":"1791344"},{"neighborhood":"Downtown","localhood":"Pioneer Square","type":"DISTURBANCES","lat":"47.601715","lng":"-122.33027","address":"3 AV / YESLER WY","id":"1791387"},{"neighborhood":"Downtown","localhood":"Pioneer Square","type":"ASSAULTS","lat":"47.601303","lng":"-122.33418","address":"1XX BLOCK OF 1 AV S","id":"1791407"},{"neighborhood":"Downtown","localhood":"Pioneer Square","type":"TRAFFIC RELATED CALLS","lat":"47.592396","lng":"-122.33629","address":"ALASKAN WY VI SB / S ROYAL BROUGHAM WY","id":"1791418"},{"neighborhood":"Downtown","localhood":"Pioneer Square","type":"DISTURBANCES","lat":"47.60416","lng":"-122.32808","address":"6 AV / JAMES ST","id":"1791422"},{"neighborhood":"Downtown","localhood":"Pioneer Square","type":"DISTURBANCES","lat":"47.598747","lng":"-122.332886","address":"4XX BLOCK OF OCCIDENTAL AV S","id":"1791433"},{"neighborhood":"Downtown","localhood":"Pioneer Square","type":"NARCOTICS COMPLAINTS","lat":"47.601715","lng":"-122.33027","address":"3 AV / YESLER WY","id":"1791477"},{"neighborhood":"Downtown","localhood":"Pioneer Square","type":"WARRANT CALLS","lat":"47.602413","lng":"-122.331085","address":"5XX BLOCK OF 3 AV","id":"1791484"},{"neighborhood":"Downtown","localhood":"Pioneer Square","type":"PARKING VIOLATIONS","lat":"47.601723","lng":"-122.33404","address":"1XX BLOCK OF YESLER WY","id":"1791510"},{"neighborhood":"Downtown","localhood":"Pioneer Square","type":"WARRANT CALLS","lat":"47.600876","lng":"-122.32961","address":"3XX BLOCK OF S WASHINGTON ST","id":"1791522"},{"neighborhood":"Downtown","localhood":"Pioneer Square","type":"NUISANCE, MISCHIEF COMPLAINTS","lat":"47.602345","lng":"-122.33715","address":"ALASKAN WY / COLUMBIA ST","id":"1791542"},{"neighborhood":"Downtown","localhood":"Pioneer Square","type":"SUSPICIOUS CIRCUMSTANCES","lat":"47.5992","lng":"-122.33158","address":"S JACKSON ST / 2 AV S","id":"1791562"},{"neighborhood":"Downtown","localhood":"Pioneer Square","type":"DISTURBANCES","lat":"47.603127","lng":"-122.33173","address":"6XX BLOCK OF 3 AV","id":"1791574"},{"neighborhood":"Downtown","localhood":"Pioneer Square","type":"LIQUOR VIOLATIONS","lat":"47.601715","lng":"-122.33027","address":"3 AV / YESLER WY","id":"1791586"},{"neighborhood":"Downtown","localhood":"Pioneer Square","type":"DISTURBANCES","lat":"47.60088","lng":"-122.33157","address":"2 AV S / S WASHINGTON ST","id":"1791584"},{"neighborhood":"Downtown","localhood":"Pioneer Square","type":"NUISANCE, MISCHIEF COMPLAINTS","lat":"47.601723","lng":"-122.33418","address":"1 AV / YESLER WY","id":"1791597"},{"neighborhood":"Downtown","localhood":"Pioneer Square","type":"CRISIS CALL","lat":"47.602413","lng":"-122.331085","address":"5XX BLOCK OF 3 AV","id":"1791592"},{"neighborhood":"Downtown","localhood":"Pioneer Square","type":"TRAFFIC RELATED CALLS","lat":"47.602345","lng":"-122.33715","address":"COLUMBIA ST / ALASKAN WY","id":"1791623"},{"neighborhood":"Downtown","localhood":"Pioneer Square","type":"TRESPASS","lat":"47.60323","lng":"-122.3303","address":"4 AV / JAMES ST","id":"1791646"},{"neighborhood":"Downtown","localhood":"Pioneer Square","type":"LIQUOR VIOLATIONS","lat":"47.601723","lng":"-122.33418","address":"1 AV / YESLER WY","id":"1791663"},{"neighborhood":"Downtown","localhood":"Pioneer Square","type":"LIQUOR VIOLATIONS","lat":"47.602413","lng":"-122.331085","address":"5XX BLOCK OF 3 AV","id":"1791674"},{"neighborhood":"Downtown","localhood":"Pioneer Square","type":"DISTURBANCES","lat":"47.602413","lng":"-122.331085","address":"5XX BLOCK OF 3 AV","id":"1791715"},{"neighborhood":"Downtown","localhood":"Pioneer Square","type":"LIQUOR VIOLATIONS","lat":"47.600464","lng":"-122.33081","address":"3XX BLOCK OF 2 AV S","id":"1791728"},{"neighborhood":"Downtown","localhood":"Pioneer Square","type":"LIQUOR VIOLATIONS","lat":"47.601723","lng":"-122.33418","address":"1 AV / YESLER WY","id":"1791761"},{"neighborhood":"Downtown","localhood":"Pioneer Square","type":"LIQUOR VIOLATIONS","lat":"47.600464","lng":"-122.33081","address":"3XX BLOCK OF 2 AV S","id":"1791816"},{"neighborhood":"Downtown","localhood":"Pioneer Square","type":"SUSPICIOUS CIRCUMSTANCES","lat":"47.60088","lng":"-122.33074","address":"2XX BLOCK OF S WASHINGTON ST","id":"1791796"},{"neighborhood":"Downtown","localhood":"Pioneer Square","type":"DISTURBANCES","lat":"47.600464","lng":"-122.33081","address":"3XX BLOCK OF 2 AV S","id":"1791843"},{"neighborhood":"Downtown","localhood":"Pioneer Square","type":"CRISIS CALL","lat":"47.603127","lng":"-122.33173","address":"6XX BLOCK OF 3 AV","id":"1791862"},{"neighborhood":"Downtown","localhood":"Pioneer Square","type":"TRAFFIC RELATED CALLS","lat":"47.60088","lng":"-122.33157","address":"2 AV S / S WASHINGTON ST","id":"1791906"},{"neighborhood":"Downtown","localhood":"Pioneer Square","type":"SUSPICIOUS CIRCUMSTANCES","lat":"47.600883","lng":"-122.33418","address":"1 AV S / S WASHINGTON ST","id":"1791907"},{"neighborhood":"Downtown","localhood":"Pioneer Square","type":"WEAPONS CALLS","lat":"47.603127","lng":"-122.33173","address":"6XX BLOCK OF 3 AV","id":"1791909"},{"neighborhood":"Downtown","localhood":"Pioneer Square","type":"DISTURBANCES","lat":"47.602413","lng":"-122.331085","address":"5XX BLOCK OF 3 AV","id":"1791926"},{"neighborhood":"Downtown","localhood":"Pioneer Square","type":"LIQUOR VIOLATIONS","lat":"47.600464","lng":"-122.33081","address":"3XX BLOCK OF 2 AV S","id":"1791917"},{"neighborhood":"Downtown","localhood":"Pioneer Square","type":"LIQUOR VIOLATIONS","lat":"47.600464","lng":"-122.33081","address":"3XX BLOCK OF 2 AV S","id":"1791949"},{"neighborhood":"Downtown","localhood":"Pioneer Square","type":"LIQUOR VIOLATIONS","lat":"47.602413","lng":"-122.331085","address":"5XX BLOCK OF 3 AV","id":"1791971"},{"neighborhood":"Downtown","localhood":"Pioneer Square","type":"LIQUOR VIOLATIONS","lat":"47.600464","lng":"-122.33081","address":"3XX BLOCK OF 2 AV S","id":"1791967"},{"neighborhood":"Downtown","localhood":"Pioneer Square","type":"LIQUOR VIOLATIONS","lat":"47.601723","lng":"-122.33404","address":"1XX BLOCK OF YESLER WY","id":"1791983"},{"neighborhood":"Downtown","localhood":"Pioneer Square","type":"LIQUOR VIOLATIONS","lat":"47.602413","lng":"-122.331085","address":"5XX BLOCK OF 3 AV","id":"1791964"},{"neighborhood":"Downtown","localhood":"Pioneer Square","type":"LIQUOR VIOLATIONS","lat":"47.600464","lng":"-122.33081","address":"3XX BLOCK OF 2 AV S","id":"1791982"}],"numIncidents":52,"percentage":6.364749082007344,"numVariance":47.331428571428575,"percentVariance":5.793320510578773},{"name":"Interbay","incidents":[{"neighborhood":"Interbay","localhood":null,"type":"DISTURBANCES","lat":"47.648457","lng":"-122.38198","address":"20 AV W / W DRAVUS ST","id":"1791175"},{"neighborhood":"Interbay","localhood":null,"type":"CAR PROWL","lat":"47.647522","lng":"-122.38198","address":"30XX BLOCK OF 20 AV W","id":"1791282"},{"neighborhood":"Interbay","localhood":null,"type":"BURGLARY ALACAD (FALSE)","lat":"47.65854","lng":"-122.38594","address":"42XX BLOCK OF 23 AV W","id":"1791307"},{"neighborhood":"Interbay","localhood":null,"type":"PARKING VIOLATIONS","lat":"47.64794","lng":"-122.37887","address":"30XX BLOCK OF 17 AV W","id":"1791404"},{"neighborhood":"Interbay","localhood":null,"type":"PROPERTY DAMAGE","lat":"47.61927","lng":"-122.35926","address":"2XX BLOCK OF ELLIOTT AV W","id":"1791469"},{"neighborhood":"Interbay","localhood":null,"type":"DISTURBANCES","lat":"47.646584","lng":"-122.38197","address":"20 AV W / W BARRETT ST","id":"1791503"},{"neighborhood":"Interbay","localhood":null,"type":"HAZARDS","lat":"47.646584","lng":"-122.38197","address":"20 AV W / W BARRETT ST","id":"1791661"},{"neighborhood":"Interbay","localhood":null,"type":"TRAFFIC RELATED CALLS","lat":"47.637657","lng":"-122.376144","address":"15 AV W / W ARMORY WY","id":"1791720"},{"neighborhood":"Interbay","localhood":null,"type":"THEFT","lat":"47.625595","lng":"-122.36703","address":"6XX BLOCK OF ELLIOTT AV W","id":"1791939"}],"numIncidents":9,"percentage":1.101591187270502,"numVariance":4.331428571428572,"percentVariance":0.5301626158419306},{"name":"Seaview","incidents":[{"neighborhood":"West Seattle","localhood":"Seaview","type":"PARKING VIOLATIONS","lat":"47.549397","lng":"-122.387115","address":"59XX BLOCK OF CALIFORNIA AV SW","id":"1791171"}],"numIncidents":1,"percentage":0.12239902080783352,"numVariance":-3.668571428571428,"percentVariance":-0.4490295506207379},{"name":"Gatewood","incidents":[{"neighborhood":"West Seattle","localhood":"Gatewood","type":"SUSPICIOUS CIRCUMSTANCES","lat":"47.531487","lng":"-122.38602","address":"41XX BLOCK OF SW MONROE ST","id":"1791248"},{"neighborhood":"West Seattle","localhood":"Gatewood","type":"SUSPICIOUS CIRCUMSTANCES","lat":"47.544872","lng":"-122.387215","address":"CALIFORNIA AV SW / FAUNTLEROY WY SW","id":"1791262"},{"neighborhood":"West Seattle","localhood":"Gatewood","type":"RESIDENTIAL BURGLARIES","lat":"47.538876","lng":"-122.38943","address":"71XX BLOCK OF WOODSIDE PL SW","id":"1791406"},{"neighborhood":"West Seattle","localhood":"Gatewood","type":"THEFT","lat":"47.544865","lng":"-122.38648","address":"42XX BLOCK OF SW MORGAN ST","id":"1791779"},{"neighborhood":"West Seattle","localhood":"Gatewood","type":"CAR PROWL","lat":"47.538876","lng":"-122.38943","address":"71XX BLOCK OF WOODSIDE PL SW","id":"1791810"}],"numIncidents":5,"percentage":0.6119951040391677,"numVariance":0.33142857142857185,"percentVariance":0.040566532610596284},{"name":"Arbor Heights","incidents":[{"neighborhood":"West Seattle","localhood":"Arbor Heights","type":"AUTO RECOVERIES","lat":"47.50333","lng":"-122.37542","address":"111XX BLOCK OF 34 PL SW","id":"1791821"}],"numIncidents":1,"percentage":0.12239902080783352,"numVariance":-3.668571428571428,"percentVariance":-0.4490295506207379},{"name":"Alki","incidents":[{"neighborhood":"West Seattle","localhood":"Alki","type":"CAR PROWL","lat":"47.5773","lng":"-122.417114","address":"30XX BLOCK OF ALKI AV SW","id":"1791651"},{"neighborhood":"West Seattle","localhood":"Alki","type":"RESIDENTIAL BURGLARIES","lat":"47.576496","lng":"-122.41591","address":"30XX BLOCK OF 65 AV SW","id":"1791739"},{"neighborhood":"West Seattle","localhood":"Alki","type":"DISTURBANCES","lat":"47.578617","lng":"-122.409355","address":"27XX BLOCK OF 60 AV SW","id":"1791768"},{"neighborhood":"West Seattle","localhood":"Alki","type":"PROPERTY DAMAGE","lat":"47.566605","lng":"-122.40896","address":"41XX BLOCK OF BEACH DR SW","id":"1791781"},{"neighborhood":"West Seattle","localhood":"Alki","type":"DISTURBANCES","lat":"47.58256","lng":"-122.40233","address":"23XX BLOCK OF ALKI AV SW","id":"1791953"},{"neighborhood":"West Seattle","localhood":"Alki","type":"DISTURBANCES","lat":"47.579487","lng":"-122.40755","address":"58XX BLOCK OF SW LANDER ST","id":"1792005"}],"numIncidents":6,"percentage":0.7343941248470013,"numVariance":1.3314285714285718,"percentVariance":0.1629655534184299},{"name":"North Admiral","incidents":[{"neighborhood":"West Seattle","localhood":"North Admiral","type":"BURGLARY ALACAD (FALSE)","lat":"47.574356","lng":"-122.37815","address":"32XX BLOCK OF 37 AV SW","id":"1791254"},{"neighborhood":"West Seattle","localhood":"North Admiral","type":"DISTURBANCES","lat":"47.5707","lng":"-122.3761","address":"37XX BLOCK OF 35 AV SW","id":"1791323"},{"neighborhood":"West Seattle","localhood":"North Admiral","type":"TRAFFIC RELATED CALLS","lat":"47.581127","lng":"-122.3786","address":"37XX BLOCK OF SW ADMIRAL WY","id":"1791434"},{"neighborhood":"West Seattle","localhood":"North Admiral","type":"PANIC ALACAD (FALSE)","lat":"47.572983","lng":"-122.39341","address":"34XX BLOCK OF 48 AV SW","id":"1791513"},{"neighborhood":"West Seattle","localhood":"North Admiral","type":"SUSPICIOUS CIRCUMSTANCES","lat":"47.574368","lng":"-122.3803","address":"32XX BLOCK OF 38 AV SW","id":"1791714"},{"neighborhood":"West Seattle","localhood":"North Admiral","type":"CAR PROWL","lat":"47.57259","lng":"-122.38567","address":"34XX BLOCK OF 42 AV SW","id":"1791748"},{"neighborhood":"West Seattle","localhood":"North Admiral","type":"BURGLARY ALACAD (FALSE)","lat":"47.570724","lng":"-122.386765","address":"37XX BLOCK OF CALIFORNIA AV SW","id":"1791772"},{"neighborhood":"West Seattle","localhood":"North Admiral","type":"TRAFFIC RELATED CALLS","lat":"47.582096","lng":"-122.38651","address":"23XX BLOCK OF CALIFORNIA AV SW","id":"1791859"},{"neighborhood":"West Seattle","localhood":"North Admiral","type":"TRESPASS","lat":"47.582115","lng":"-122.392815","address":"23XX BLOCK OF 48 AV SW","id":"1791912"}],"numIncidents":9,"percentage":1.101591187270502,"numVariance":4.331428571428572,"percentVariance":0.5301626158419306},{"name":"Fairmount Park","incidents":[{"neighborhood":"West Seattle","localhood":"Fairmount Park","type":"DISTURBANCES","lat":"47.54568","lng":"-122.38721","address":"64XX BLOCK OF CALIFORNIA AV SW","id":"1791184"},{"neighborhood":"West Seattle","localhood":"Fairmount Park","type":"CAR PROWL","lat":"47.55111","lng":"-122.38035","address":"56XX BLOCK OF 38 AV SW","id":"1791440"},{"neighborhood":"West Seattle","localhood":"Fairmount Park","type":"TRAFFIC RELATED CALLS","lat":"47.54759","lng":"-122.38717","address":"60XX BLOCK OF CALIFORNIA AV SW","id":"1791496"},{"neighborhood":"West Seattle","localhood":"Fairmount Park","type":"PERSONS - LOST, FOUND, MISSING","lat":"47.56167","lng":"-122.38008","address":"45XX BLOCK OF 38 AV SW","id":"1791693"},{"neighborhood":"West Seattle","localhood":"Fairmount Park","type":"SUSPICIOUS CIRCUMSTANCES","lat":"47.55659","lng":"-122.385445","address":"50XX BLOCK OF 42 AV SW","id":"1791937"}],"numIncidents":5,"percentage":0.6119951040391677,"numVariance":0.33142857142857185,"percentVariance":0.040566532610596284},{"name":"Genesee","incidents":[{"neighborhood":"West Seattle","localhood":"Genesee","type":"PARKING VIOLATIONS","lat":"47.563778","lng":"-122.38281","address":"44XX BLOCK OF 40 AV SW","id":"1791432"},{"neighborhood":"West Seattle","localhood":"Genesee","type":"SUSPICIOUS CIRCUMSTANCES","lat":"47.56199","lng":"-122.38546","address":"45XX BLOCK OF 42 AV SW","id":"1791889"},{"neighborhood":"West Seattle","localhood":"Genesee","type":"DISTURBANCES","lat":"47.56287","lng":"-122.3801","address":"38 AV SW / SW OREGON ST","id":"1791897"}],"numIncidents":3,"percentage":0.36719706242350064,"numVariance":-1.6685714285714282,"percentVariance":-0.20423150900507075},{"name":"Fauntleroy","incidents":[{"neighborhood":"West Seattle","localhood":"Fauntleroy","type":"DISTURBANCES","lat":"47.53066","lng":"-122.39271","address":"80XX BLOCK OF FAUNTLEROY WY SW","id":"1791255"},{"neighborhood":"West Seattle","localhood":"Fauntleroy","type":"PARKING VIOLATIONS","lat":"47.52288","lng":"-122.39294","address":"FAUNTLEROY WY SW / SW DIRECTOR ST","id":"1791380"}],"numIncidents":2,"percentage":0.24479804161566704,"numVariance":-2.668571428571428,"percentVariance":-0.32663052981290436},{"name":"North Beacon Hill","incidents":[{"neighborhood":"Beacon Hill","localhood":"North Beacon Hill","type":"RESIDENTIAL BURGLARIES","lat":"47.581013","lng":"-122.30494","address":"21XX BLOCK OF S BAYVIEW ST","id":"1791297"},{"neighborhood":"Beacon Hill","localhood":"North Beacon Hill","type":"TRAFFIC RELATED CALLS","lat":"47.592503","lng":"-122.311966","address":"I90 EB / RAINIER AV S OFF RP","id":"1791360"},{"neighborhood":"Beacon Hill","localhood":"North Beacon Hill","type":"TRAFFIC RELATED CALLS","lat":"47.57142","lng":"-122.30806","address":"36XX BLOCK OF BEACON AV S","id":"1791414"},{"neighborhood":"Beacon Hill","localhood":"North Beacon Hill","type":"PARKING VIOLATIONS","lat":"47.58412","lng":"-122.31469","address":"21XX BLOCK OF 14 AV S","id":"1791617"},{"neighborhood":"Beacon Hill","localhood":"North Beacon Hill","type":"LIQUOR VIOLATIONS","lat":"47.581005","lng":"-122.3121","address":"S BAYVIEW ST / 16 AV S","id":"1791713"},{"neighborhood":"Beacon Hill","localhood":"North Beacon Hill","type":"DISTURBANCES","lat":"47.592686","lng":"-122.31728","address":"10XX BLOCK OF 12 AV S","id":"1791724"},{"neighborhood":"Beacon Hill","localhood":"North Beacon Hill","type":"THEFT","lat":"47.579674","lng":"-122.29916","address":"27XX BLOCK OF RAINIER AV S","id":"1791737"},{"neighborhood":"Beacon Hill","localhood":"North Beacon Hill","type":"NUISANCE, MISCHIEF COMPLAINTS","lat":"47.58024","lng":"-122.31211","address":"25XX BLOCK OF 16 AV S","id":"1791845"},{"neighborhood":"Beacon Hill","localhood":"North Beacon Hill","type":"LIQUOR VIOLATIONS","lat":"47.5837","lng":"-122.31469","address":"14 AV S / S WALKER ST","id":"1791900"},{"neighborhood":"Beacon Hill","localhood":"North Beacon Hill","type":"DISTURBANCES","lat":"47.594215","lng":"-122.31026","address":"9XX BLOCK OF RAINIER AV S","id":"1791936"},{"neighborhood":"Beacon Hill","localhood":"North Beacon Hill","type":"LIQUOR VIOLATIONS","lat":"47.581013","lng":"-122.313805","address":"BEACON AV S / S BAYVIEW ST","id":"1791970"},{"neighborhood":"Beacon Hill","localhood":"North Beacon Hill","type":"DISTURBANCES","lat":"47.587734","lng":"-122.30574","address":"20XX BLOCK OF S STATE ST","id":"1792015"}],"numIncidents":12,"percentage":1.4687882496940026,"numVariance":7.331428571428572,"percentVariance":0.8973596782654312},{"name":"Mid-Beacon Hill","incidents":[{"neighborhood":"Beacon Hill","localhood":"Mid-Beacon Hill","type":"SUSPICIOUS CIRCUMSTANCES","lat":"47.550854","lng":"-122.29552","address":"28XX BLOCK OF S ORCAS ST","id":"1791185"},{"neighborhood":"Beacon Hill","localhood":"Mid-Beacon Hill","type":"DISTURBANCES","lat":"47.55786","lng":"-122.29159","address":"M L KING JR WY S / S FERDINAND ST","id":"1791276"},{"neighborhood":"Beacon Hill","localhood":"Mid-Beacon Hill","type":"GUN CALLS","lat":"47.540253","lng":"-122.29959","address":"70XX BLOCK OF COVELLO DR S","id":"1791340"},{"neighborhood":"Beacon Hill","localhood":"Mid-Beacon Hill","type":"SUSPICIOUS CIRCUMSTANCES","lat":"47.546474","lng":"-122.2903","address":"60XX BLOCK OF 33 AV S","id":"1791342"},{"neighborhood":"Beacon Hill","localhood":"Mid-Beacon Hill","type":"THEFT","lat":"47.55429","lng":"-122.29267","address":"53XX BLOCK OF 31 AV S","id":"1791346"},{"neighborhood":"Beacon Hill","localhood":"Mid-Beacon Hill","type":"BURGLARY ALACAD (FALSE)","lat":"47.5516","lng":"-122.28829","address":"56XX BLOCK OF M L KING JR WY S","id":"1791383"},{"neighborhood":"Beacon Hill","localhood":"Mid-Beacon Hill","type":"PARKING VIOLATIONS","lat":"47.561672","lng":"-122.311646","address":"15XX BLOCK OF S SNOQUALMIE ST","id":"1791523"},{"neighborhood":"Beacon Hill","localhood":"Mid-Beacon Hill","type":"CASUALTIES","lat":"47.55904","lng":"-122.302864","address":"48XX BLOCK OF 24 AV S","id":"1791665"},{"neighborhood":"Beacon Hill","localhood":"Mid-Beacon Hill","type":"THREATS, HARASSMENT","lat":"47.548885","lng":"-122.311134","address":"S ALBRO PL / SWIFT AV S","id":"1791767"},{"neighborhood":"Beacon Hill","localhood":"Mid-Beacon Hill","type":"LIQUOR VIOLATIONS","lat":"47.56392","lng":"-122.31351","address":"43XX BLOCK OF 15 AV S","id":"1791830"},{"neighborhood":"Beacon Hill","localhood":"Mid-Beacon Hill","type":"TRAFFIC RELATED CALLS","lat":"47.560818","lng":"-122.29351","address":"S ALASKA ST / M L KING JR WY S","id":"1791955"}],"numIncidents":11,"percentage":1.346389228886169,"numVariance":6.331428571428572,"percentVariance":0.7749606574575976},{"name":"South Beacon Hill","incidents":[{"neighborhood":"Beacon Hill","localhood":"South Beacon Hill","type":"TRAFFIC RELATED CALLS","lat":"47.542027","lng":"-122.30365","address":"SWIFT AV S OFF RP / I5 NB","id":"1791370"},{"neighborhood":"Beacon Hill","localhood":"South Beacon Hill","type":"CAR PROWL","lat":"47.538914","lng":"-122.293755","address":"30XX BLOCK OF S MYRTLE ST","id":"1791455"},{"neighborhood":"Beacon Hill","localhood":"South Beacon Hill","type":"COMMERCIAL BURGLARIES","lat":"47.510456","lng":"-122.27861","address":"100XX BLOCK OF M L KING JR WY S","id":"1791650"},{"neighborhood":"Beacon Hill","localhood":"South Beacon Hill","type":"FRAUD CALLS","lat":"47.538914","lng":"-122.293755","address":"30XX BLOCK OF S MYRTLE ST","id":"1791669"},{"neighborhood":"Beacon Hill","localhood":"South Beacon Hill","type":"TRAFFIC RELATED CALLS","lat":"47.522587","lng":"-122.27942","address":"M L KING JR WY S / S FAIRBANKS ST","id":"1791742"},{"neighborhood":"Beacon Hill","localhood":"South Beacon Hill","type":"TRAFFIC RELATED CALLS","lat":"47.518253","lng":"-122.2837","address":"39 AV S / S CAMBRIDGE ST","id":"1791915"}],"numIncidents":6,"percentage":0.7343941248470013,"numVariance":1.3314285714285718,"percentVariance":0.1629655534184299},{"name":"Holly Park","incidents":[{"neighborhood":"Beacon Hill","localhood":"Holly Park","type":"DISTURBANCES","lat":"47.54342","lng":"-122.29029","address":"65XX BLOCK OF 33 AV S","id":"1791257"},{"neighborhood":"Beacon Hill","localhood":"Holly Park","type":"TRAFFIC RELATED CALLS","lat":"47.540714","lng":"-122.290596","address":"S WILLOW ST / 32 AV S","id":"1791281"},{"neighborhood":"Beacon Hill","localhood":"Holly Park","type":"PARKING VIOLATIONS","lat":"47.533356","lng":"-122.28204","address":"S HOLDEN ST / IAGO PL S","id":"1791470"},{"neighborhood":"Beacon Hill","localhood":"Holly Park","type":"MISCELLANEOUS MISDEMEANORS","lat":"47.539764","lng":"-122.28619","address":"69XX BLOCK OF 37 AV S","id":"1791517"},{"neighborhood":"Beacon Hill","localhood":"Holly Park","type":"TRAFFIC RELATED CALLS","lat":"47.5373","lng":"-122.286865","address":"HOLLY PARK DR S / S MYRTLE PL","id":"1791631"},{"neighborhood":"Beacon Hill","localhood":"Holly Park","type":"BURGLARY ALACAD (FALSE)","lat":"47.531536","lng":"-122.28199","address":"39XX BLOCK OF S KENYON ST","id":"1791866"},{"neighborhood":"Beacon Hill","localhood":"Holly Park","type":"SUSPICIOUS CIRCUMSTANCES","lat":"47.5373","lng":"-122.286865","address":"HOLLY PARK DR S / S MYRTLE PL","id":"1791924"}],"numIncidents":7,"percentage":0.8567931456548347,"numVariance":2.331428571428572,"percentVariance":0.28536457422626327},{"name":"Brighton","incidents":[{"neighborhood":"Rainier Valley","localhood":"Brighton","type":"NOISE DISTURBANCE","lat":"47.54247","lng":"-122.27409","address":"46XX BLOCK OF S HOLLY ST","id":"1791189"},{"neighborhood":"Rainier Valley","localhood":"Brighton","type":"TRAFFIC RELATED CALLS","lat":"47.542477","lng":"-122.272804","address":"RAINIER AV S / S HOLLY ST","id":"1791602"},{"neighborhood":"Rainier Valley","localhood":"Brighton","type":"RESIDENTIAL BURGLARIES","lat":"47.5386","lng":"-122.27264","address":"71XX BLOCK OF 48 AV S","id":"1791654"},{"neighborhood":"Rainier Valley","localhood":"Brighton","type":"BURGLARY ALACAD (FALSE)","lat":"47.539787","lng":"-122.27672","address":"44XX BLOCK OF S FRONTENAC ST","id":"1791823"},{"neighborhood":"Rainier Valley","localhood":"Brighton","type":"PROWLER","lat":"47.53858","lng":"-122.26725","address":"71XX BLOCK OF SEWARD PARK AV S","id":"1791837"},{"neighborhood":"Rainier Valley","localhood":"Brighton","type":"CRISIS CALL","lat":"47.536957","lng":"-122.27027","address":"S OTHELLO ST / RAINIER AV S","id":"1791884"},{"neighborhood":"Rainier Valley","localhood":"Brighton","type":"DISTURBANCES","lat":"47.54247","lng":"-122.27409","address":"46XX BLOCK OF S HOLLY ST","id":"1791925"},{"neighborhood":"Rainier Valley","localhood":"Brighton","type":"FRAUD CALLS","lat":"47.532104","lng":"-122.26999","address":"78XX BLOCK OF RAINIER AV S","id":"1791993"}],"numIncidents":8,"percentage":0.9791921664626682,"numVariance":3.331428571428572,"percentVariance":0.40776359503409676},{"name":"Dunlap","incidents":[{"neighborhood":"Rainier Valley","localhood":"Dunlap","type":"THEFT","lat":"47.51985","lng":"-122.26803","address":"92XX BLOCK OF RAINIER AV S","id":"1791188"},{"neighborhood":"Rainier Valley","localhood":"Dunlap","type":"SUSPICIOUS CIRCUMSTANCES","lat":"47.522408","lng":"-122.264496","address":"90XX BLOCK OF SEWARD PARK AV S","id":"1791274"},{"neighborhood":"Rainier Valley","localhood":"Dunlap","type":"PARKING VIOLATIONS","lat":"47.520336","lng":"-122.27704","address":"44XX BLOCK OF S SHELL ST","id":"1791426"},{"neighborhood":"Rainier Valley","localhood":"Dunlap","type":"DISTURBANCES","lat":"47.523308","lng":"-122.26999","address":"RAINIER AV S / S HENDERSON ST","id":"1791457"},{"neighborhood":"Rainier Valley","localhood":"Dunlap","type":"DISTURBANCES","lat":"47.52623","lng":"-122.265594","address":"86XX BLOCK OF WABASH AV S","id":"1791637"},{"neighborhood":"Rainier Valley","localhood":"Dunlap","type":"DISTURBANCES","lat":"47.523308","lng":"-122.26999","address":"RAINIER AV S / S HENDERSON ST","id":"1791824"},{"neighborhood":"Rainier Valley","localhood":"Dunlap","type":"VEHICLE ALACAD (FALSE)","lat":"47.520115","lng":"-122.26278","address":"RAINIER AV S / 56 AV S","id":"1791839"},{"neighborhood":"Rainier Valley","localhood":"Dunlap","type":"TRAFFIC RELATED CALLS","lat":"47.52474","lng":"-122.26998","address":"88XX BLOCK OF RAINIER AV S","id":"1791836"},{"neighborhood":"Rainier Valley","localhood":"Dunlap","type":"TRAFFIC RELATED CALLS","lat":"47.52388","lng":"-122.264595","address":"88XX BLOCK OF SEWARD PARK AV S","id":"1791852"},{"neighborhood":"Rainier Valley","localhood":"Dunlap","type":"THEFT","lat":"47.51985","lng":"-122.26803","address":"92XX BLOCK OF RAINIER AV S","id":"1791855"},{"neighborhood":"Rainier Valley","localhood":"Dunlap","type":"TRAFFIC RELATED CALLS","lat":"47.521408","lng":"-122.27","address":"S FISHER PL / RAINIER AV S","id":"1791854"},{"neighborhood":"Rainier Valley","localhood":"Dunlap","type":"TRAFFIC RELATED CALLS","lat":"47.52331","lng":"-122.276405","address":"S HENDERSON ST / RENTON AV S","id":"1791891"},{"neighborhood":"Rainier Valley","localhood":"Dunlap","type":"THEFT","lat":"47.51985","lng":"-122.26803","address":"92XX BLOCK OF RAINIER AV S","id":"1791914"},{"neighborhood":"Rainier Valley","localhood":"Dunlap","type":"PROPERTY DAMAGE","lat":"47.52887","lng":"-122.26765","address":"83XX BLOCK OF WOLCOTT AV S","id":"1791997"}],"numIncidents":14,"percentage":1.7135862913096693,"numVariance":9.331428571428571,"percentVariance":1.142157719881098},{"name":"Rainier Beach","incidents":[{"neighborhood":"Rainier Valley","localhood":"Rainier Beach","type":"DISTURBANCES","lat":"47.51337","lng":"-122.25939","address":"59 AV S / S NORFOLK ST","id":"1791325"},{"neighborhood":"Rainier Valley","localhood":"Rainier Beach","type":"TRAFFIC RELATED CALLS","lat":"47.51051","lng":"-122.23897","address":"103XX BLOCK OF RAINIER AV S","id":"1791630"},{"neighborhood":"Rainier Valley","localhood":"Rainier Beach","type":"GUN CALLS","lat":"47.51682","lng":"-122.26514","address":"S ROXBURY ST / 54 AV S","id":"1791851"},{"neighborhood":"Rainier Valley","localhood":"Rainier Beach","type":"PANIC ALACAD (FALSE)","lat":"47.51428","lng":"-122.2582","address":"97XX BLOCK OF 60 AV S","id":"1791951"}],"numIncidents":4,"percentage":0.4895960832313341,"numVariance":-0.6685714285714282,"percentVariance":-0.08183248819723732},{"name":"Rainier View","incidents":[{"neighborhood":"Rainier Valley","localhood":"Rainier View","type":"SUSPICIOUS CIRCUMSTANCES","lat":"47.50255","lng":"-122.264","address":"55XX BLOCK OF S LEO ST","id":"1791829"},{"neighborhood":"Rainier Valley","localhood":"Rainier View","type":"SUSPICIOUS CIRCUMSTANCES","lat":"47.508938","lng":"-122.25026","address":"102XX BLOCK OF WATERS AV S","id":"1791887"}],"numIncidents":2,"percentage":0.24479804161566704,"numVariance":-2.668571428571428,"percentVariance":-0.32663052981290436},{"name":"Mount Baker","incidents":[{"neighborhood":"Rainier Valley","localhood":"Mount Baker","type":"NOISE DISTURBANCE","lat":"47.57076","lng":"-122.29101","address":"36XX BLOCK OF 33 AV S","id":"1791328"},{"neighborhood":"Rainier Valley","localhood":"Mount Baker","type":"TRAFFIC RELATED CALLS","lat":"47.58829","lng":"-122.29489","address":"29 AV S / S MASSACHUSETTS ST","id":"1791504"},{"neighborhood":"Rainier Valley","localhood":"Mount Baker","type":"DISTURBANCES","lat":"47.585907","lng":"-122.29403","address":"19XX BLOCK OF 30 AV S","id":"1791511"},{"neighborhood":"Rainier Valley","localhood":"Mount Baker","type":"BURGLARY ALACAD (FALSE)","lat":"47.58405","lng":"-122.29408","address":"21XX BLOCK OF 30 AV S","id":"1791515"},{"neighborhood":"Rainier Valley","localhood":"Mount Baker","type":"PROPERTY DAMAGE","lat":"47.56977","lng":"-122.2907","address":"RAINIER AV S / LETITIA AV S","id":"1791534"},{"neighborhood":"Rainier Valley","localhood":"Mount Baker","type":"TRAFFIC RELATED CALLS","lat":"47.588303","lng":"-122.297","address":"28 AV S / S MASSACHUSETTS ST","id":"1791825"}],"numIncidents":6,"percentage":0.7343941248470013,"numVariance":1.3314285714285718,"percentVariance":0.1629655534184299},{"name":"Columbia City","incidents":[{"neighborhood":"Rainier Valley","localhood":"Columbia City","type":"TRAFFIC RELATED CALLS","lat":"47.55785","lng":"-122.28614","address":"37 AV S / S FERDINAND ST","id":"1791197"},{"neighborhood":"Rainier Valley","localhood":"Columbia City","type":"NOISE DISTURBANCE","lat":"47.558666","lng":"-122.29015","address":"32XX BLOCK OF S EDMUNDS ST","id":"1791324"},{"neighborhood":"Rainier Valley","localhood":"Columbia City","type":"PARKING VIOLATIONS","lat":"47.55961","lng":"-122.30466","address":"BEACON AV S / S COLUMBIAN WY","id":"1791521"},{"neighborhood":"Rainier Valley","localhood":"Columbia City","type":"TRAFFIC RELATED CALLS","lat":"47.55785","lng":"-122.28504","address":"S FERDINAND ST / RAINIER AV S","id":"1791535"},{"neighborhood":"Rainier Valley","localhood":"Columbia City","type":"THEFT","lat":"47.576183","lng":"-122.29649","address":"31XX BLOCK OF RAINIER AV S","id":"1791640"},{"neighborhood":"Rainier Valley","localhood":"Columbia City","type":"THEFT","lat":"47.576183","lng":"-122.29649","address":"31XX BLOCK OF RAINIER AV S","id":"1791677"},{"neighborhood":"Rainier Valley","localhood":"Columbia City","type":"TRAFFIC RELATED CALLS","lat":"47.552296","lng":"-122.27828","address":"55XX BLOCK OF RAINIER AV S","id":"1791726"},{"neighborhood":"Rainier Valley","localhood":"Columbia City","type":"NUISANCE, MISCHIEF COMPLAINTS","lat":"47.57593","lng":"-122.29674","address":"S WINTHROP ST / M L KING JR WY S","id":"1791729"},{"neighborhood":"Rainier Valley","localhood":"Columbia City","type":"LIQUOR VIOLATIONS","lat":"47.567947","lng":"-122.289246","address":"S ANDOVER ST / RAINIER AV S","id":"1791757"},{"neighborhood":"Rainier Valley","localhood":"Columbia City","type":"TRESPASS","lat":"47.568882","lng":"-122.289925","address":"38XX BLOCK OF RAINIER AV S","id":"1791883"},{"neighborhood":"Rainier Valley","localhood":"Columbia City","type":"DISTURBANCES","lat":"47.562824","lng":"-122.284935","address":"38 AV S / S OREGON ST","id":"1791902"}],"numIncidents":11,"percentage":1.346389228886169,"numVariance":6.331428571428572,"percentVariance":0.7749606574575976},{"name":"Highland Park","incidents":[{"neighborhood":"Delridge","localhood":"Highland Park","type":"AUTO THEFTS","lat":"47.532047","lng":"-122.33755","address":"DETROIT AV SW / SW KENYON ST","id":"1791759"},{"neighborhood":"Delridge","localhood":"Highland Park","type":"SUSPICIOUS CIRCUMSTANCES","lat":"47.522816","lng":"-122.348","address":"10 AV SW / SW HENDERSON ST","id":"1791489"},{"neighborhood":"Delridge","localhood":"Highland Park","type":"TRAFFIC RELATED CALLS","lat":"47.522808","lng":"-122.346725","address":"9 AV SW / SW HENDERSON ST","id":"1792010"}],"numIncidents":3,"percentage":0.36719706242350064,"numVariance":-1.6685714285714282,"percentVariance":-0.20423150900507075},{"name":"North Delridge","incidents":[{"neighborhood":"Delridge","localhood":"North Delridge","type":"DISTURBANCES","lat":"47.570293","lng":"-122.360085","address":"37XX BLOCK OF 21 AV SW","id":"1791296"},{"neighborhood":"Delridge","localhood":"North Delridge","type":"NUISANCE, MISCHIEF COMPLAINTS","lat":"47.568344","lng":"-122.36436","address":"24XX BLOCK OF SW ANDOVER ST","id":"1791315"},{"neighborhood":"Delridge","localhood":"North Delridge","type":"THEFT","lat":"47.567444","lng":"-122.3633","address":"40XX BLOCK OF DELRIDGE WY SW","id":"1791458"},{"neighborhood":"Delridge","localhood":"North Delridge","type":"DISTURBANCES","lat":"47.555283","lng":"-122.36429","address":"25 AV SW / PUGET BV SW","id":"1791479"},{"neighborhood":"Delridge","localhood":"North Delridge","type":"CAR PROWL","lat":"47.556355","lng":"-122.36293","address":"50XX BLOCK OF DELRIDGE WY SW","id":"1791740"},{"neighborhood":"Delridge","localhood":"North Delridge","type":"PROPERTY DAMAGE","lat":"47.56544","lng":"-122.36946","address":"28XX BLOCK OF SW NEVADA ST","id":"1791990"}],"numIncidents":6,"percentage":0.7343941248470013,"numVariance":1.3314285714285718,"percentVariance":0.1629655534184299},{"name":"Riverview","incidents":[{"neighborhood":"Delridge","localhood":"Riverview","type":"THEFT","lat":"47.544716","lng":"-122.35964","address":"63XX BLOCK OF 21 AV SW","id":"1791667"},{"neighborhood":"Delridge","localhood":"Riverview","type":"SUSPICIOUS CIRCUMSTANCES","lat":"47.555756","lng":"-122.357056","address":"18 AV SW / SW DAWSON ST","id":"1791957"}],"numIncidents":2,"percentage":0.24479804161566704,"numVariance":-2.668571428571428,"percentVariance":-0.32663052981290436},{"name":"High Point","incidents":[{"neighborhood":"Delridge","localhood":"High Point","type":"SUSPICIOUS CIRCUMSTANCES","lat":"47.545635","lng":"-122.37507","address":"63XX BLOCK OF 34 AV SW","id":"1791381"},{"neighborhood":"Delridge","localhood":"High Point","type":"AUTO THEFTS","lat":"47.552864","lng":"-122.37495","address":"54XX BLOCK OF 34 AV SW","id":"1791427"},{"neighborhood":"Delridge","localhood":"High Point","type":"TRAFFIC RELATED CALLS","lat":"47.548325","lng":"-122.37637","address":"SW RAYMOND ST / 35 AV SW","id":"1791648"},{"neighborhood":"Delridge","localhood":"High Point","type":"FRAUD CALLS","lat":"47.54676","lng":"-122.36885","address":"63XX BLOCK OF HIGH POINT DR SW","id":"1791763"}],"numIncidents":4,"percentage":0.4895960832313341,"numVariance":-0.6685714285714282,"percentVariance":-0.08183248819723732},{"name":"South Delridge","incidents":[{"neighborhood":"Delridge","localhood":"South Delridge","type":"DISTURBANCES","lat":"47.537266","lng":"-122.36118","address":"73XX BLOCK OF DELRIDGE WY SW","id":"1791224"},{"neighborhood":"Delridge","localhood":"South Delridge","type":"TRAFFIC RELATED CALLS","lat":"47.521023","lng":"-122.36455","address":"25 AV SW / SW BARTON ST","id":"1791273"},{"neighborhood":"Delridge","localhood":"South Delridge","type":"DISTURBANCES","lat":"47.517365","lng":"-122.36457","address":"SW ROXBURY ST / 25 AV SW","id":"1791292"},{"neighborhood":"Delridge","localhood":"South Delridge","type":"TRAFFIC RELATED CALLS","lat":"47.522335","lng":"-122.35963","address":"90XX BLOCK OF DELRIDGE WY SW","id":"1791295"},{"neighborhood":"Delridge","localhood":"South Delridge","type":"AUTO THEFTS","lat":"47.523994","lng":"-122.36048","address":"88XX BLOCK OF DELRIDGE WY SW","id":"1791336"},{"neighborhood":"Delridge","localhood":"South Delridge","type":"TRESPASS","lat":"47.52516","lng":"-122.35508","address":"87XX BLOCK OF 16 AV SW","id":"1791420"},{"neighborhood":"Delridge","localhood":"South Delridge","type":"RESIDENTIAL BURGLARIES","lat":"47.525585","lng":"-122.363174","address":"86XX BLOCK OF 24 AV SW","id":"1791443"},{"neighborhood":"Delridge","localhood":"South Delridge","type":"TRAFFIC RELATED CALLS","lat":"47.524693","lng":"-122.36048","address":"DELRIDGE WY SW / SW TRENTON ST","id":"1791604"},{"neighborhood":"Delridge","localhood":"South Delridge","type":"SUSPICIOUS CIRCUMSTANCES","lat":"47.5181","lng":"-122.3565","address":"94XX BLOCK OF 17 AV SW","id":"1791595"},{"neighborhood":"Delridge","localhood":"South Delridge","type":"TRAFFIC RELATED CALLS","lat":"47.52286","lng":"-122.3601","address":"DELRIDGE WY SW / SW HENDERSON ST","id":"1791616"},{"neighborhood":"Delridge","localhood":"South Delridge","type":"DISTURBANCES","lat":"47.530975","lng":"-122.36044","address":"79XX BLOCK OF DELRIDGE WY SW","id":"1791783"},{"neighborhood":"Delridge","localhood":"South Delridge","type":"TRESPASS","lat":"47.524704","lng":"-122.35576","address":"16XX BLOCK OF SW TRENTON ST","id":"1791798"},{"neighborhood":"Delridge","localhood":"South Delridge","type":"DISTURBANCES","lat":"47.52068","lng":"-122.35782","address":"92XX BLOCK OF 18 AV SW","id":"1791863"},{"neighborhood":"Delridge","localhood":"South Delridge","type":"SUSPICIOUS CIRCUMSTANCES","lat":"47.522858","lng":"-122.36185","address":"SW HENDERSON ST / 22 AV SW","id":"1791864"},{"neighborhood":"Delridge","localhood":"South Delridge","type":"AUTO THEFTS","lat":"47.52738","lng":"-122.36317","address":"84XX BLOCK OF 24 AV SW","id":"1791927"},{"neighborhood":"Delridge","localhood":"South Delridge","type":"FRAUD CALLS","lat":"47.523994","lng":"-122.36048","address":"88XX BLOCK OF DELRIDGE WY SW","id":"1792008"}],"numIncidents":16,"percentage":1.9583843329253363,"numVariance":11.331428571428571,"percentVariance":1.386955761496765},{"name":"Roxhill","incidents":[{"neighborhood":"Delridge","localhood":"Roxhill","type":"PROPERTY - MISSING, FOUND","lat":"47.521065","lng":"-122.375404","address":"34 AV SW / SW BARTON ST","id":"1791198"},{"neighborhood":"Delridge","localhood":"Roxhill","type":"CAR PROWL","lat":"47.52376","lng":"-122.37128","address":"88XX BLOCK OF 30 AV SW","id":"1791439"},{"neighborhood":"Delridge","localhood":"Roxhill","type":"TRAFFIC RELATED CALLS","lat":"47.53481","lng":"-122.37661","address":"35 AV SW / SW AUSTIN ST","id":"1791709"},{"neighborhood":"Delridge","localhood":"Roxhill","type":"WARRANT CALLS","lat":"47.522858","lng":"-122.374","address":"32 AV SW / SW HENDERSON ST","id":"1791775"},{"neighborhood":"Delridge","localhood":"Roxhill","type":"DISTURBANCES","lat":"47.53647","lng":"-122.37389","address":"73XX BLOCK OF 32 AV SW","id":"1791908"},{"neighborhood":"Delridge","localhood":"Roxhill","type":"NUISANCE, MISCHIEF COMPLAINTS","lat":"47.52468","lng":"-122.365204","address":"25XX BLOCK OF SW TRENTON ST","id":"1791938"},{"neighborhood":"Delridge","localhood":"Roxhill","type":"DISTURBANCES","lat":"47.52468","lng":"-122.36453","address":"25 AV SW / SW TRENTON ST","id":"1791916"}],"numIncidents":7,"percentage":0.8567931456548347,"numVariance":2.331428571428572,"percentVariance":0.28536457422626327},{"name":"Seward Park","incidents":[{"neighborhood":"Seward Park","localhood":null,"type":"PARKING VIOLATIONS","lat":"47.546062","lng":"-122.27126","address":"48XX BLOCK OF S GRAHAM ST","id":"1791400"},{"neighborhood":"Seward Park","localhood":null,"type":"DISTURBANCES","lat":"47.56984","lng":"-122.27491","address":"38XX BLOCK OF LAKE WASHINGTON BV S","id":"1791453"},{"neighborhood":"Seward Park","localhood":null,"type":"PARKING VIOLATIONS","lat":"47.5492","lng":"-122.257484","address":"59XX BLOCK OF LAKE WASHINGTON BV S","id":"1791641"}],"numIncidents":3,"percentage":0.36719706242350064,"numVariance":-1.6685714285714282,"percentVariance":-0.20423150900507075},{"name":"Portage Bay","incidents":[{"neighborhood":"Capitol Hill","localhood":"Portage Bay","type":"SUSPICIOUS CIRCUMSTANCES","lat":"47.64381","lng":"-122.320854","address":"26XX BLOCK OF BROADWAY E","id":"1791312"},{"neighborhood":"Capitol Hill","localhood":"Portage Bay","type":"BURGLARY ALACAD (FALSE)","lat":"47.647823","lng":"-122.31999","address":"8XX BLOCK OF E GWINN PL","id":"1791620"}],"numIncidents":2,"percentage":0.24479804161566704,"numVariance":-2.668571428571428,"percentVariance":-0.32663052981290436},{"name":"Montlake","incidents":[{"neighborhood":"Capitol Hill","localhood":"Montlake","type":"BURGLARY ALACAD (FALSE)","lat":"47.639557","lng":"-122.3166","address":"12XX BLOCK OF E LYNN ST","id":"1791208"},{"neighborhood":"Capitol Hill","localhood":"Montlake","type":"ROBBERY","lat":"47.637905","lng":"-122.29998","address":"25XX BLOCK OF E NEWTON ST","id":"1791330"},{"neighborhood":"Capitol Hill","localhood":"Montlake","type":"TRAFFIC RELATED CALLS","lat":"47.646397","lng":"-122.30462","address":"E SHELBY ST / MONTLAKE BV E","id":"1791611"}],"numIncidents":3,"percentage":0.36719706242350064,"numVariance":-1.6685714285714282,"percentVariance":-0.20423150900507075},{"name":"Madison Park","incidents":[{"neighborhood":"Capitol Hill","localhood":"Madison Park","type":"DISTURBANCES","lat":"47.634556","lng":"-122.27783","address":"42XX BLOCK OF E BLAINE ST","id":"1791186"},{"neighborhood":"Capitol Hill","localhood":"Madison Park","type":"SUSPICIOUS CIRCUMSTANCES","lat":"47.62802","lng":"-122.291954","address":"10XX BLOCK OF 31 AV E","id":"1791888"}],"numIncidents":2,"percentage":0.24479804161566704,"numVariance":-2.668571428571428,"percentVariance":-0.32663052981290436},{"name":"Broadway","incidents":[{"neighborhood":"Capitol Hill","localhood":"Broadway","type":"LIQUOR VIOLATIONS","lat":"47.614655","lng":"-122.32079","address":"15XX BLOCK OF BROADWAY","id":"1791181"},{"neighborhood":"Capitol Hill","localhood":"Broadway","type":"DISTURBANCES","lat":"47.615284","lng":"-122.31351","address":"14XX BLOCK OF E PINE ST","id":"1791212"},{"neighborhood":"Capitol Hill","localhood":"Broadway","type":"DISTURBANCES","lat":"47.61815","lng":"-122.322174","address":"18XX BLOCK OF HARVARD AV","id":"1791204"},{"neighborhood":"Capitol Hill","localhood":"Broadway","type":"DISTURBANCES","lat":"47.623108","lng":"-122.31466","address":"14 AV E / E REPUBLICAN ST","id":"1791205"},{"neighborhood":"Capitol Hill","localhood":"Broadway","type":"DISTURBANCES","lat":"47.61641","lng":"-122.32004","address":"16XX BLOCK OF NAGLE PL","id":"1791203"},{"neighborhood":"Capitol Hill","localhood":"Broadway","type":"TRAFFIC RELATED CALLS","lat":"47.62427","lng":"-122.32199","address":"HARVARD AV E / E MERCER ST","id":"1791211"},{"neighborhood":"Capitol Hill","localhood":"Broadway","type":"SUSPICIOUS CIRCUMSTANCES","lat":"47.623684","lng":"-122.3157","address":"5XX BLOCK OF 13 AV E","id":"1791218"},{"neighborhood":"Capitol Hill","localhood":"Broadway","type":"TRAFFIC RELATED CALLS","lat":"47.61581","lng":"-122.322136","address":"16XX BLOCK OF HARVARD AV","id":"1791216"},{"neighborhood":"Capitol Hill","localhood":"Broadway","type":"NUISANCE, MISCHIEF COMPLAINTS","lat":"47.61701","lng":"-122.318184","address":"17XX BLOCK OF 11 AV","id":"1791233"},{"neighborhood":"Capitol Hill","localhood":"Broadway","type":"CRISIS CALL","lat":"47.61465","lng":"-122.32341","address":"15XX BLOCK OF BOYLSTON AV","id":"1791222"},{"neighborhood":"Capitol Hill","localhood":"Broadway","type":"LIQUOR VIOLATIONS","lat":"47.614674","lng":"-122.31815","address":"15XX BLOCK OF 11 AV","id":"1791263"},{"neighborhood":"Capitol Hill","localhood":"Broadway","type":"DISTURBANCES","lat":"47.615242","lng":"-122.319466","address":"10 AV / E PINE ST","id":"1791294"},{"neighborhood":"Capitol Hill","localhood":"Broadway","type":"TRAFFIC RELATED CALLS","lat":"47.614666","lng":"-122.31946","address":"15XX BLOCK OF 10 AV","id":"1791981"},{"neighborhood":"Capitol Hill","localhood":"Broadway","type":"BURGLARY ALACAD (FALSE)","lat":"47.627647","lng":"-122.31357","address":"14XX BLOCK OF E WARD ST","id":"1791362"},{"neighborhood":"Capitol Hill","localhood":"Broadway","type":"DISTURBANCES","lat":"47.619038","lng":"-122.32785","address":"1XX BLOCK OF MELROSE AV E","id":"1791363"},{"neighborhood":"Capitol Hill","localhood":"Broadway","type":"PARKING VIOLATIONS","lat":"47.62107","lng":"-122.321556","address":"8XX BLOCK OF E THOMAS ST","id":"1791368"},{"neighborhood":"Capitol Hill","localhood":"Broadway","type":"PARKING VIOLATIONS","lat":"47.623707","lng":"-122.32788","address":"5XX BLOCK OF MELROSE AV E","id":"1791366"},{"neighborhood":"Capitol Hill","localhood":"Broadway","type":"CAR PROWL","lat":"47.61641","lng":"-122.32004","address":"16XX BLOCK OF NAGLE PL","id":"1791374"},{"neighborhood":"Capitol Hill","localhood":"Broadway","type":"PARKING VIOLATIONS","lat":"47.613514","lng":"-122.31813","address":"14XX BLOCK OF 11 AV","id":"1791393"},{"neighborhood":"Capitol Hill","localhood":"Broadway","type":"TRESPASS","lat":"47.614655","lng":"-122.32079","address":"15XX BLOCK OF BROADWAY","id":"1791391"},{"neighborhood":"Capitol Hill","localhood":"Broadway","type":"TRESPASS","lat":"47.6237","lng":"-122.32093","address":"5XX BLOCK OF BROADWAY E","id":"1791402"},{"neighborhood":"Capitol Hill","localhood":"Broadway","type":"BURGLARY ALACAD (FALSE)","lat":"47.62254","lng":"-122.316765","address":"4XX BLOCK OF 12 AV E","id":"1791409"},{"neighborhood":"Capitol Hill","localhood":"Broadway","type":"SUSPICIOUS CIRCUMSTANCES","lat":"47.62053","lng":"-122.31563","address":"2XX BLOCK OF 13 AV E","id":"1791419"},{"neighborhood":"Capitol Hill","localhood":"Broadway","type":"PARKING VIOLATIONS","lat":"47.612938","lng":"-122.319435","address":"10 AV / E UNION ST","id":"1791452"},{"neighborhood":"Capitol Hill","localhood":"Broadway","type":"TRESPASS","lat":"47.62049","lng":"-122.320885","address":"2XX BLOCK OF BROADWAY E","id":"1791465"},{"neighborhood":"Capitol Hill","localhood":"Broadway","type":"TRESPASS","lat":"47.61407","lng":"-122.32145","address":"8XX BLOCK OF E PIKE ST","id":"1791467"},{"neighborhood":"Capitol Hill","localhood":"Broadway","type":"DISTURBANCES","lat":"47.61407","lng":"-122.32145","address":"8XX BLOCK OF E PIKE ST","id":"1791501"},{"neighborhood":"Capitol Hill","localhood":"Broadway","type":"PARKING VIOLATIONS","lat":"47.623135","lng":"-122.32253","address":"7XX BLOCK OF E REPUBLICAN ST","id":"1791500"},{"neighborhood":"Capitol Hill","localhood":"Broadway","type":"SUSPICIOUS CIRCUMSTANCES","lat":"47.614674","lng":"-122.31815","address":"15XX BLOCK OF 11 AV","id":"1791519"},{"neighborhood":"Capitol Hill","localhood":"Broadway","type":"PANIC ALACAD (FALSE)","lat":"47.626488","lng":"-122.3146","address":"8XX BLOCK OF 14 AV E","id":"1791528"},{"neighborhood":"Capitol Hill","localhood":"Broadway","type":"TRAFFIC RELATED CALLS","lat":"47.618748","lng":"-122.31953","address":"E DENNY WY / 10 AV E","id":"1791537"},{"neighborhood":"Capitol Hill","localhood":"Broadway","type":"CAR PROWL","lat":"47.615234","lng":"-122.3208","address":"E PINE ST / BROADWAY","id":"1791570"},{"neighborhood":"Capitol Hill","localhood":"Broadway","type":"DISTURBANCES","lat":"47.614075","lng":"-122.32078","address":"BROADWAY / E PIKE ST","id":"1791585"},{"neighborhood":"Capitol Hill","localhood":"Broadway","type":"HAZARDS","lat":"47.61849","lng":"-122.32564","address":"E OLIVE WY / E DENNY WY","id":"1791606"},{"neighborhood":"Capitol Hill","localhood":"Broadway","type":"DISTURBANCES","lat":"47.621944","lng":"-122.312645","address":"15 AV E / E HARRISON ST","id":"1791691"},{"neighborhood":"Capitol Hill","localhood":"Broadway","type":"SUSPICIOUS CIRCUMSTANCES","lat":"47.614666","lng":"-122.31946","address":"15XX BLOCK OF 10 AV","id":"1791735"},{"neighborhood":"Capitol Hill","localhood":"Broadway","type":"PROPERTY DAMAGE","lat":"47.61578","lng":"-122.3268","address":"16XX BLOCK OF BELLEVUE AV","id":"1791753"},{"neighborhood":"Capitol Hill","localhood":"Broadway","type":"PARKING VIOLATIONS","lat":"47.6248","lng":"-122.315674","address":"6XX BLOCK OF 13 AV E","id":"1791780"},{"neighborhood":"Capitol Hill","localhood":"Broadway","type":"DISTURBANCES","lat":"47.623135","lng":"-122.32306","address":"BOYLSTON AV E / E REPUBLICAN ST","id":"1791801"},{"neighborhood":"Capitol Hill","localhood":"Broadway","type":"DISTURBANCES","lat":"47.620502","lng":"-122.31955","address":"2XX BLOCK OF 10 AV E","id":"1791797"},{"neighborhood":"Capitol Hill","localhood":"Broadway","type":"SUSPICIOUS CIRCUMSTANCES","lat":"47.63149","lng":"-122.31251","address":"12XX BLOCK OF 15 AV E","id":"1791795"},{"neighborhood":"Capitol Hill","localhood":"Broadway","type":"DISTURBANCES","lat":"47.623695","lng":"-122.3199","address":"5XX BLOCK OF 10 AV E","id":"1791794"},{"neighborhood":"Capitol Hill","localhood":"Broadway","type":"DISTURBANCES","lat":"47.623703","lng":"-122.32305","address":"5XX BLOCK OF BOYLSTON AV E","id":"1791842"},{"neighborhood":"Capitol Hill","localhood":"Broadway","type":"PARKING VIOLATIONS","lat":"47.616173","lng":"-122.32789","address":"16XX BLOCK OF MELROSE AV","id":"1791871"},{"neighborhood":"Capitol Hill","localhood":"Broadway","type":"TRAFFIC RELATED CALLS","lat":"47.619904","lng":"-122.32088","address":"E JOHN ST / BROADWAY E","id":"1791878"},{"neighborhood":"Capitol Hill","localhood":"Broadway","type":"LIQUOR VIOLATIONS","lat":"47.615837","lng":"-122.31817","address":"16XX BLOCK OF 11 AV","id":"1791874"},{"neighborhood":"Capitol Hill","localhood":"Broadway","type":"LIQUOR VIOLATIONS","lat":"47.615837","lng":"-122.31817","address":"16XX BLOCK OF 11 AV","id":"1791895"},{"neighborhood":"Capitol Hill","localhood":"Broadway","type":"TRESPASS","lat":"47.623123","lng":"-122.31938","address":"10XX BLOCK OF E REPUBLICAN ST","id":"1791923"},{"neighborhood":"Capitol Hill","localhood":"Broadway","type":"SUSPICIOUS CIRCUMSTANCES","lat":"47.62609","lng":"-122.32791","address":"BELLEVUE PL E / MELROSE CONNECTOR TL","id":"1791920"},{"neighborhood":"Capitol Hill","localhood":"Broadway","type":"DISTURBANCES","lat":"47.61704","lng":"-122.325554","address":"17XX BLOCK OF SUMMIT AV","id":"1791963"},{"neighborhood":"Capitol Hill","localhood":"Broadway","type":"DISTURBANCES","lat":"47.614094","lng":"-122.31814","address":"11 AV / E PIKE ST","id":"1791980"},{"neighborhood":"Capitol Hill","localhood":"Broadway","type":"ASSAULTS","lat":"47.614075","lng":"-122.32078","address":"BROADWAY / E PIKE ST","id":"1791995"},{"neighborhood":"Capitol Hill","localhood":"Broadway","type":"LIQUOR VIOLATIONS","lat":"47.614075","lng":"-122.32078","address":"BROADWAY / E PIKE ST","id":"1791994"}],"numIncidents":53,"percentage":6.487148102815178,"numVariance":48.331428571428575,"percentVariance":5.915719531386607},{"name":"Stevens","incidents":[{"neighborhood":"Capitol Hill","localhood":"Stevens","type":"THREATS, HARASSMENT","lat":"47.62408","lng":"-122.295296","address":"29XX BLOCK OF E MADISON ST","id":"1791243"},{"neighborhood":"Capitol Hill","localhood":"Stevens","type":"PARKING VIOLATIONS","lat":"47.616997","lng":"-122.30677","address":"19XX BLOCK OF E MADISON ST","id":"1791394"},{"neighborhood":"Capitol Hill","localhood":"Stevens","type":"SUSPICIOUS CIRCUMSTANCES","lat":"47.620792","lng":"-122.30249","address":"2XX BLOCK OF 23 AV E","id":"1791550"},{"neighborhood":"Capitol Hill","localhood":"Stevens","type":"PARKING VIOLATIONS","lat":"47.61788","lng":"-122.30609","address":"18XX BLOCK OF 20 AV","id":"1791543"},{"neighborhood":"Capitol Hill","localhood":"Stevens","type":"SUSPICIOUS CIRCUMSTANCES","lat":"47.614773","lng":"-122.31212","address":"15XX BLOCK OF E MADISON ST","id":"1791807"},{"neighborhood":"Capitol Hill","localhood":"Stevens","type":"TRESPASS","lat":"47.614773","lng":"-122.31212","address":"15XX BLOCK OF E MADISON ST","id":"1791910"},{"neighborhood":"Capitol Hill","localhood":"Stevens","type":"SUSPICIOUS CIRCUMSTANCES","lat":"47.63788","lng":"-122.31241","address":"16XX BLOCK OF E BOSTON TR","id":"1791948"}],"numIncidents":7,"percentage":0.8567931456548347,"numVariance":2.331428571428572,"percentVariance":0.28536457422626327},{"name":"Victory Heights","incidents":[{"neighborhood":"Lake City","localhood":"Victory Heights","type":"DISTURBANCES","lat":"47.717457","lng":"-122.29896","address":"27XX BLOCK OF NE 123 ST","id":"1791288"},{"neighborhood":"Lake City","localhood":"Victory Heights","type":"SUSPICIOUS CIRCUMSTANCES","lat":"47.718494","lng":"-122.311295","address":"123XX BLOCK OF 16 AV NE","id":"1791291"},{"neighborhood":"Lake City","localhood":"Victory Heights","type":"PARKING VIOLATIONS","lat":"47.716698","lng":"-122.312584","address":"120XX BLOCK OF 15 AV NE","id":"1791486"},{"neighborhood":"Lake City","localhood":"Victory Heights","type":"BURGLARY ALACAD (FALSE)","lat":"47.712997","lng":"-122.304436","address":"115XX BLOCK OF 23 AV NE","id":"1791846"}],"numIncidents":4,"percentage":0.4895960832313341,"numVariance":-0.6685714285714282,"percentVariance":-0.08183248819723732},{"name":"Matthews Beach","incidents":[],"numIncidents":0,"percentage":0,"numVariance":-4.668571428571428,"percentVariance":-0.5714285714285714},{"name":"Meadowbrook","incidents":[{"neighborhood":"Lake City","localhood":"Meadowbrook","type":"PROPERTY DAMAGE","lat":"47.70928","lng":"-122.29073","address":"110XX BLOCK OF 35 AV NE","id":"1791299"},{"neighborhood":"Lake City","localhood":"Meadowbrook","type":"PARKING VIOLATIONS","lat":"47.697548","lng":"-122.302864","address":"23XX BLOCK OF NE 95 ST","id":"1791431"},{"neighborhood":"Lake City","localhood":"Meadowbrook","type":"RESIDENTIAL BURGLARIES","lat":"47.70757","lng":"-122.301544","address":"108XX BLOCK OF LAKE CITY WY NE","id":"1791698"},{"neighborhood":"Lake City","localhood":"Meadowbrook","type":"TRAFFIC RELATED CALLS","lat":"47.71421","lng":"-122.29823","address":"LAKE CITY WY NE / NE 117 ST","id":"1791806"}],"numIncidents":4,"percentage":0.4895960832313341,"numVariance":-0.6685714285714282,"percentVariance":-0.08183248819723732},{"name":"Olympic Hills","incidents":[{"neighborhood":"Lake City","localhood":"Olympic Hills","type":"DISTURBANCES","lat":"47.719296","lng":"-122.29845","address":"27XX BLOCK OF NE 125 ST","id":"1791190"},{"neighborhood":"Lake City","localhood":"Olympic Hills","type":"DISTURBANCES","lat":"47.719296","lng":"-122.29845","address":"27XX BLOCK OF NE 125 ST","id":"1791223"},{"neighborhood":"Lake City","localhood":"Olympic Hills","type":"CRISIS CALL","lat":"47.729336","lng":"-122.307304","address":"137XX BLOCK OF 20 AV NE","id":"1791231"},{"neighborhood":"Lake City","localhood":"Olympic Hills","type":"PARKING VIOLATIONS","lat":"47.73104","lng":"-122.29384","address":"140XX BLOCK OF 32 AV NE","id":"1791379"},{"neighborhood":"Lake City","localhood":"Olympic Hills","type":"SUSPICIOUS CIRCUMSTANCES","lat":"47.723797","lng":"-122.29284","address":"130XX BLOCK OF LAKE CITY WY NE","id":"1791531"},{"neighborhood":"Lake City","localhood":"Olympic Hills","type":"PARKS EXCLUSIONS","lat":"47.72109","lng":"-122.29634","address":"NE 127 ST / 30 AV NE","id":"1791689"},{"neighborhood":"Lake City","localhood":"Olympic Hills","type":"PARKS EXCLUSIONS","lat":"47.72109","lng":"-122.29634","address":"NE 127 ST / 30 AV NE","id":"1791697"},{"neighborhood":"Lake City","localhood":"Olympic Hills","type":"THEFT","lat":"47.721996","lng":"-122.29635","address":"127XX BLOCK OF 30 AV NE","id":"1791766"},{"neighborhood":"Lake City","localhood":"Olympic Hills","type":"DISTURBANCES","lat":"47.720207","lng":"-122.299095","address":"125XX BLOCK OF 27 AV NE","id":"1791786"},{"neighborhood":"Lake City","localhood":"Olympic Hills","type":"SUSPICIOUS CIRCUMSTANCES","lat":"47.72019","lng":"-122.296326","address":"125XX BLOCK OF 30 AV NE","id":"1791919"}],"numIncidents":10,"percentage":1.2239902080783354,"numVariance":5.331428571428572,"percentVariance":0.652561636649764},{"name":"Cedar Park","incidents":[{"neighborhood":"Lake City","localhood":"Cedar Park","type":"SUSPICIOUS CIRCUMSTANCES","lat":"47.73194","lng":"-122.29237","address":"NE 143 ST / LAKE CITY WY NE","id":"1791196"},{"neighborhood":"Lake City","localhood":"Cedar Park","type":"SUSPICIOUS CIRCUMSTANCES","lat":"47.726414","lng":"-122.28644","address":"39 AV NE / NE 135 ST","id":"1791199"},{"neighborhood":"Lake City","localhood":"Cedar Park","type":"SUSPICIOUS CIRCUMSTANCES","lat":"47.718304","lng":"-122.292755","address":"123XX BLOCK OF 33 AV NE","id":"1791385"},{"neighborhood":"Lake City","localhood":"Cedar Park","type":"SUSPICIOUS CIRCUMSTANCES","lat":"47.71733","lng":"-122.292076","address":"33XX BLOCK OF NE 123 ST","id":"1791429"},{"neighborhood":"Lake City","localhood":"Cedar Park","type":"DISTURBANCES","lat":"47.72573","lng":"-122.29089","address":"35 AV NE / NE 134 ST","id":"1791540"},{"neighborhood":"Lake City","localhood":"Cedar Park","type":"DISTURBANCES","lat":"47.726414","lng":"-122.28644","address":"NE 135 ST / 39 AV NE","id":"1791952"}],"numIncidents":6,"percentage":0.7343941248470013,"numVariance":1.3314285714285718,"percentVariance":0.1629655534184299},{"name":"Haller Lake","incidents":[{"neighborhood":"Northgate","localhood":"Haller Lake","type":"FRAUD CALLS","lat":"47.712284","lng":"-122.332726","address":"21XX BLOCK OF N 115 ST","id":"1791178"},{"neighborhood":"Northgate","localhood":"Haller Lake","type":"BURGLARY ALACAD (FALSE)","lat":"47.711384","lng":"-122.33404","address":"113XX BLOCK OF MERIDIAN AV N","id":"1791177"},{"neighborhood":"Northgate","localhood":"Haller Lake","type":"SUSPICIOUS CIRCUMSTANCES","lat":"47.7132","lng":"-122.33407","address":"115XX BLOCK OF MERIDIAN AV N","id":"1791227"},{"neighborhood":"Northgate","localhood":"Haller Lake","type":"DISTURBANCES","lat":"47.733063","lng":"-122.345085","address":"143XX BLOCK OF AURORA AV N","id":"1791548"},{"neighborhood":"Northgate","localhood":"Haller Lake","type":"PROPERTY DAMAGE","lat":"47.70596","lng":"-122.339325","address":"105XX BLOCK OF ASHWORTH AV N","id":"1791547"},{"neighborhood":"Northgate","localhood":"Haller Lake","type":"THEFT","lat":"47.72217","lng":"-122.34227","address":"STONE AV N / N 128 ST","id":"1791608"},{"neighborhood":"Northgate","localhood":"Haller Lake","type":"THREATS, HARASSMENT","lat":"47.725037","lng":"-122.34499","address":"132XX BLOCK OF AURORA AV N","id":"1791820"},{"neighborhood":"Northgate","localhood":"Haller Lake","type":"VICE CALLS","lat":"47.723213","lng":"-122.34498","address":"N 130 ST / AURORA AV N","id":"1791815"},{"neighborhood":"Northgate","localhood":"Haller Lake","type":"SUSPICIOUS CIRCUMSTANCES","lat":"47.705044","lng":"-122.33932","address":"ASHWORTH AV N / N NORTHGATE WY","id":"1791960"},{"neighborhood":"Northgate","localhood":"Haller Lake","type":"BURGLARY ALACAD (FALSE)","lat":"47.709118","lng":"-122.334","address":"110XX BLOCK OF MERIDIAN AV N","id":"1792009"}],"numIncidents":10,"percentage":1.2239902080783354,"numVariance":5.331428571428572,"percentVariance":0.652561636649764},{"name":"Pinehurst","incidents":[{"neighborhood":"Northgate","localhood":"Pinehurst","type":"SUSPICIOUS CIRCUMSTANCES","lat":"47.708588","lng":"-122.321915","address":"5XX BLOCK OF NE NORTHGATE WY","id":"1791272"},{"neighborhood":"Northgate","localhood":"Pinehurst","type":"SUSPICIOUS CIRCUMSTANCES","lat":"47.70856","lng":"-122.317856","address":"NE NORTHGATE WY / ROOSEVELT WY NE","id":"1791277"},{"neighborhood":"Northgate","localhood":"Pinehurst","type":"SUSPICIOUS CIRCUMSTANCES","lat":"47.716705","lng":"-122.31395","address":"120XX BLOCK OF 14 AV NE","id":"1791512"},{"neighborhood":"Northgate","localhood":"Pinehurst","type":"TRAFFIC RELATED CALLS","lat":"47.73304","lng":"-122.31274","address":"143XX BLOCK OF 15 AV NE","id":"1791579"},{"neighborhood":"Northgate","localhood":"Pinehurst","type":"FRAUD CALLS","lat":"47.709106","lng":"-122.325966","address":"110XX BLOCK OF 3 AV NE","id":"1791576"},{"neighborhood":"Northgate","localhood":"Pinehurst","type":"PARKING VIOLATIONS","lat":"47.720394","lng":"-122.323586","address":"125XX BLOCK OF 5 AV NE","id":"1791718"},{"neighborhood":"Northgate","localhood":"Pinehurst","type":"TRAFFIC RELATED CALLS","lat":"47.71513","lng":"-122.31253","address":"117XX BLOCK OF 15 AV NE","id":"1791744"},{"neighborhood":"Northgate","localhood":"Pinehurst","type":"BURGLARY ALACAD (FALSE)","lat":"47.70939","lng":"-122.31786","address":"110XX BLOCK OF ROOSEVELT WY NE","id":"1791947"},{"neighborhood":"Northgate","localhood":"Pinehurst","type":"HAZARDS","lat":"47.719414","lng":"-122.31268","address":"NE 125 ST / 15 AV NE","id":"1791996"}],"numIncidents":9,"percentage":1.101591187270502,"numVariance":4.331428571428572,"percentVariance":0.5301626158419306},{"name":"North College Park","incidents":[{"neighborhood":"Northgate","localhood":"North College Park","type":"DISTURBANCES","lat":"47.698162","lng":"-122.34192","address":"95XX BLOCK OF STONE AV N","id":"1791176"},{"neighborhood":"Northgate","localhood":"North College Park","type":"DISTURBANCES","lat":"47.698696","lng":"-122.339714","address":"95XX BLOCK OF ASHWORTH AV N","id":"1791192"},{"neighborhood":"Northgate","localhood":"North College Park","type":"PARKING VIOLATIONS","lat":"47.70594","lng":"-122.333275","address":"21XX BLOCK OF N 106 ST","id":"1791210"},{"neighborhood":"Northgate","localhood":"North College Park","type":"SUSPICIOUS CIRCUMSTANCES","lat":"47.691463","lng":"-122.34346","address":"85XX BLOCK OF NESBIT AV N","id":"1791331"},{"neighborhood":"Northgate","localhood":"North College Park","type":"SUSPICIOUS CIRCUMSTANCES","lat":"47.69962","lng":"-122.344635","address":"N 97 ST / AURORA AV N","id":"1791376"},{"neighborhood":"Northgate","localhood":"North College Park","type":"PARKING VIOLATIONS","lat":"47.691414","lng":"-122.33807","address":"85XX BLOCK OF DENSMORE AV N","id":"1791401"},{"neighborhood":"Northgate","localhood":"North College Park","type":"PROPERTY - MISSING, FOUND","lat":"47.70233","lng":"-122.334526","address":"100XX BLOCK OF COLLEGE WY N","id":"1791621"},{"neighborhood":"Northgate","localhood":"North College Park","type":"PROPERTY - MISSING, FOUND","lat":"47.70233","lng":"-122.334526","address":"100XX BLOCK OF COLLEGE WY N","id":"1791692"},{"neighborhood":"Northgate","localhood":"North College Park","type":"SUSPICIOUS CIRCUMSTANCES","lat":"47.69237","lng":"-122.34347","address":"N 88 ST / NESBIT AV N","id":"1791723"},{"neighborhood":"Northgate","localhood":"North College Park","type":"SUSPICIOUS CIRCUMSTANCES","lat":"47.693256","lng":"-122.34025","address":"88XX BLOCK OF INTERLAKE AV N","id":"1791958"},{"neighborhood":"Northgate","localhood":"North College Park","type":"TRAFFIC RELATED CALLS","lat":"47.697807","lng":"-122.344604","address":"AURORA AV N / N 95 ST","id":"1791973"},{"neighborhood":"Northgate","localhood":"North College Park","type":"TRAFFIC RELATED CALLS","lat":"47.6905","lng":"-122.33644","address":"WALLINGFORD AV N / N 85 ST","id":"1792007"}],"numIncidents":12,"percentage":1.4687882496940026,"numVariance":7.331428571428572,"percentVariance":0.8973596782654312},{"name":"Maple Leaf","incidents":[{"neighborhood":"Northgate","localhood":"Maple Leaf","type":"SUSPICIOUS CIRCUMSTANCES","lat":"47.697624","lng":"-122.31345","address":"12XX BLOCK OF NE 95 ST","id":"1791187"},{"neighborhood":"Northgate","localhood":"Maple Leaf","type":"BURGLARY ALACAD (FALSE)","lat":"47.698536","lng":"-122.31349","address":"12XX BLOCK OF NE 96 ST","id":"1791270"},{"neighborhood":"Northgate","localhood":"Maple Leaf","type":"SUSPICIOUS CIRCUMSTANCES","lat":"47.707397","lng":"-122.32324","address":"107XX BLOCK OF 5 AV NE","id":"1791306"},{"neighborhood":"Northgate","localhood":"Maple Leaf","type":"RESIDENTIAL BURGLARIES","lat":"47.705845","lng":"-122.31989","address":"8XX BLOCK OF NE 106 ST","id":"1791553"},{"neighborhood":"Northgate","localhood":"Maple Leaf","type":"THEFT","lat":"47.695908","lng":"-122.32844","address":"NE 92 ST / 1 AV NE","id":"1791565"},{"neighborhood":"Northgate","localhood":"Maple Leaf","type":"SUSPICIOUS CIRCUMSTANCES","lat":"47.700253","lng":"-122.32579","address":"97XX BLOCK OF 3 AV NE","id":"1791664"},{"neighborhood":"Northgate","localhood":"Maple Leaf","type":"SUSPICIOUS CIRCUMSTANCES","lat":"47.69769","lng":"-122.32309","address":"5 AV NE / NE 95 ST","id":"1791690"},{"neighborhood":"Northgate","localhood":"Maple Leaf","type":"THEFT","lat":"47.708603","lng":"-122.324615","address":"4XX BLOCK OF NE NORTHGATE WY","id":"1791703"},{"neighborhood":"Northgate","localhood":"Maple Leaf","type":"NOISE DISTURBANCE","lat":"47.696754","lng":"-122.318954","address":"8XX BLOCK OF NE 94 ST","id":"1791847"},{"neighborhood":"Northgate","localhood":"Maple Leaf","type":"THEFT","lat":"47.708603","lng":"-122.324615","address":"3XX BLOCK OF NE NORTHGATE WY","id":"1791941"},{"neighborhood":"Northgate","localhood":"Maple Leaf","type":"THEFT","lat":"47.708603","lng":"-122.324615","address":"3XX BLOCK OF NE NORTHGATE WY","id":"1791969"},{"neighborhood":"Northgate","localhood":"Maple Leaf","type":"RESIDENTIAL BURGLARIES","lat":"47.69079","lng":"-122.31115","address":"85XX BLOCK OF 16 AV NE","id":"1792006"}],"numIncidents":12,"percentage":1.4687882496940026,"numVariance":7.331428571428572,"percentVariance":0.8973596782654312},{"name":"Woodinville Heights","incidents":[],"numIncidents":0,"percentage":0,"numVariance":-4.668571428571428,"percentVariance":-0.5714285714285714},{"name":"West Wellington","incidents":[],"numIncidents":0,"percentage":0,"numVariance":-4.668571428571428,"percentVariance":-0.5714285714285714},{"name":"East Wellington","incidents":[],"numIncidents":0,"percentage":0,"numVariance":-4.668571428571428,"percentVariance":-0.5714285714285714},{"name":"Tourist District","incidents":[],"numIncidents":0,"percentage":0,"numVariance":-4.668571428571428,"percentVariance":-0.5714285714285714},{"name":"Reinwood Leota","incidents":[],"numIncidents":0,"percentage":0,"numVariance":-4.668571428571428,"percentVariance":-0.5714285714285714},{"name":"Town Center","incidents":[],"numIncidents":0,"percentage":0,"numVariance":-4.668571428571428,"percentVariance":-0.5714285714285714},{"name":"Lower West Ridge","incidents":[],"numIncidents":0,"percentage":0,"numVariance":-4.668571428571428,"percentVariance":-0.5714285714285714},{"name":"North Industrial","incidents":[],"numIncidents":0,"percentage":0,"numVariance":-4.668571428571428,"percentVariance":-0.5714285714285714},{"name":"Valley Industrial","incidents":[],"numIncidents":0,"percentage":0,"numVariance":-4.668571428571428,"percentVariance":-0.5714285714285714},{"name":"Wedge","incidents":[],"numIncidents":0,"percentage":0,"numVariance":-4.668571428571428,"percentVariance":-0.5714285714285714},{"name":"Algona","incidents":[],"numIncidents":0,"percentage":0,"numVariance":-4.668571428571428,"percentVariance":-0.5714285714285714},{"name":"Auburn","incidents":[],"numIncidents":0,"percentage":0,"numVariance":-4.668571428571428,"percentVariance":-0.5714285714285714},{"name":"Beaux Arts","incidents":[],"numIncidents":0,"percentage":0,"numVariance":-4.668571428571428,"percentVariance":-0.5714285714285714},{"name":"Black Diamond","incidents":[],"numIncidents":0,"percentage":0,"numVariance":-4.668571428571428,"percentVariance":-0.5714285714285714},{"name":"Bothell","incidents":[],"numIncidents":0,"percentage":0,"numVariance":-4.668571428571428,"percentVariance":-0.5714285714285714},{"name":"Burien","incidents":[],"numIncidents":0,"percentage":0,"numVariance":-4.668571428571428,"percentVariance":-0.5714285714285714},{"name":"Carnation","incidents":[],"numIncidents":0,"percentage":0,"numVariance":-4.668571428571428,"percentVariance":-0.5714285714285714},{"name":"Clyde Hill","incidents":[],"numIncidents":0,"percentage":0,"numVariance":-4.668571428571428,"percentVariance":-0.5714285714285714},{"name":"Covington","incidents":[],"numIncidents":0,"percentage":0,"numVariance":-4.668571428571428,"percentVariance":-0.5714285714285714},{"name":"Des Moines","incidents":[],"numIncidents":0,"percentage":0,"numVariance":-4.668571428571428,"percentVariance":-0.5714285714285714},{"name":"Duvall","incidents":[],"numIncidents":0,"percentage":0,"numVariance":-4.668571428571428,"percentVariance":-0.5714285714285714},{"name":"Enumclaw","incidents":[],"numIncidents":0,"percentage":0,"numVariance":-4.668571428571428,"percentVariance":-0.5714285714285714},{"name":"Federal Way","incidents":[],"numIncidents":0,"percentage":0,"numVariance":-4.668571428571428,"percentVariance":-0.5714285714285714},{"name":"Hunts Point","incidents":[],"numIncidents":0,"percentage":0,"numVariance":-4.668571428571428,"percentVariance":-0.5714285714285714},{"name":"Issaquah","incidents":[],"numIncidents":0,"percentage":0,"numVariance":-4.668571428571428,"percentVariance":-0.5714285714285714},{"name":"Kent","incidents":[],"numIncidents":0,"percentage":0,"numVariance":-4.668571428571428,"percentVariance":-0.5714285714285714},{"name":"Kenmore","incidents":[],"numIncidents":0,"percentage":0,"numVariance":-4.668571428571428,"percentVariance":-0.5714285714285714},{"name":"Lake Forest Park","incidents":[],"numIncidents":0,"percentage":0,"numVariance":-4.668571428571428,"percentVariance":-0.5714285714285714},{"name":"Medina","incidents":[],"numIncidents":0,"percentage":0,"numVariance":-4.668571428571428,"percentVariance":-0.5714285714285714},{"name":"Mercer Island","incidents":[],"numIncidents":0,"percentage":0,"numVariance":-4.668571428571428,"percentVariance":-0.5714285714285714},{"name":"Milton","incidents":[],"numIncidents":0,"percentage":0,"numVariance":-4.668571428571428,"percentVariance":-0.5714285714285714},{"name":"Maple Valley","incidents":[],"numIncidents":0,"percentage":0,"numVariance":-4.668571428571428,"percentVariance":-0.5714285714285714},{"name":"North Bend","incidents":[],"numIncidents":0,"percentage":0,"numVariance":-4.668571428571428,"percentVariance":-0.5714285714285714},{"name":"Newcastle","incidents":[],"numIncidents":0,"percentage":0,"numVariance":-4.668571428571428,"percentVariance":-0.5714285714285714},{"name":"Normandy Park","incidents":[],"numIncidents":0,"percentage":0,"numVariance":-4.668571428571428,"percentVariance":-0.5714285714285714},{"name":"Pacific","incidents":[],"numIncidents":0,"percentage":0,"numVariance":-4.668571428571428,"percentVariance":-0.5714285714285714},{"name":"Redmond","incidents":[],"numIncidents":0,"percentage":0,"numVariance":-4.668571428571428,"percentVariance":-0.5714285714285714},{"name":"Shoreline","incidents":[],"numIncidents":0,"percentage":0,"numVariance":-4.668571428571428,"percentVariance":-0.5714285714285714},{"name":"Skykomish","incidents":[],"numIncidents":0,"percentage":0,"numVariance":-4.668571428571428,"percentVariance":-0.5714285714285714},{"name":"Sammamish","incidents":[],"numIncidents":0,"percentage":0,"numVariance":-4.668571428571428,"percentVariance":-0.5714285714285714},{"name":"Snoqualmie","incidents":[],"numIncidents":0,"percentage":0,"numVariance":-4.668571428571428,"percentVariance":-0.5714285714285714},{"name":"SeaTac","incidents":[],"numIncidents":0,"percentage":0,"numVariance":-4.668571428571428,"percentVariance":-0.5714285714285714},{"name":"Tukwila","incidents":[],"numIncidents":0,"percentage":0,"numVariance":-4.668571428571428,"percentVariance":-0.5714285714285714},{"name":"Yarrow Point","incidents":[],"numIncidents":0,"percentage":0,"numVariance":-4.668571428571428,"percentVariance":-0.5714285714285714},{"name":"Phinney Ridge","incidents":[],"numIncidents":0,"percentage":0,"numVariance":-4.668571428571428,"percentVariance":-0.5714285714285714},{"name":"Wallingford","incidents":[{"neighborhood":"Wallingford","localhood":null,"type":"PARKING VIOLATIONS","lat":"47.64862","lng":"-122.33634","address":"34XX BLOCK OF WALLINGFORD AV N","id":"1791253"},{"neighborhood":"Wallingford","localhood":null,"type":"AUTO THEFTS","lat":"47.668785","lng":"-122.34003","address":"GREEN LAKE WY N / N 55 ST","id":"1791286"},{"neighborhood":"Wallingford","localhood":null,"type":"TRAFFIC RELATED CALLS","lat":"47.661385","lng":"-122.336296","address":"N 45 ST / WALLINGFORD AV N","id":"1791382"},{"neighborhood":"Wallingford","localhood":null,"type":"PARKING VIOLATIONS","lat":"47.662483","lng":"-122.34182","address":"46XX BLOCK OF STONE WY N","id":"1791437"},{"neighborhood":"Wallingford","localhood":null,"type":"TRESPASS","lat":"47.65462","lng":"-122.32789","address":"39XX BLOCK OF 1 AV NE","id":"1791456"},{"neighborhood":"Wallingford","localhood":null,"type":"TRAFFIC RELATED CALLS","lat":"47.670536","lng":"-122.32221","address":"I5 SB / N 45 ST OFF RP","id":"1791472"},{"neighborhood":"Wallingford","localhood":null,"type":"ASSAULTS","lat":"47.657944","lng":"-122.33021","address":"N 42 ST / SUNNYSIDE AV N","id":"1791568"},{"neighborhood":"Wallingford","localhood":null,"type":"DISTURBANCES","lat":"47.660854","lng":"-122.334984","address":"44XX BLOCK OF BURKE AV N","id":"1791627"},{"neighborhood":"Wallingford","localhood":null,"type":"THEFT","lat":"47.660862","lng":"-122.33619","address":"44XX BLOCK OF WALLINGFORD AV N","id":"1791652"},{"neighborhood":"Wallingford","localhood":null,"type":"TRAFFIC RELATED CALLS","lat":"47.661736","lng":"-122.33643","address":"45XX BLOCK OF WALLINGFORD AV N","id":"1791700"},{"neighborhood":"Wallingford","localhood":null,"type":"GUN CALLS","lat":"47.64803","lng":"-122.33315","address":"N PACIFIC ST / N 34 ST","id":"1791732"},{"neighborhood":"Wallingford","localhood":null,"type":"RESIDENTIAL BURGLARIES","lat":"47.655212","lng":"-122.3257","address":"39XX BLOCK OF LATONA AV NE","id":"1791822"},{"neighborhood":"Wallingford","localhood":null,"type":"NUISANCE, MISCHIEF COMPLAINTS","lat":"47.65145","lng":"-122.32978","address":"24XX BLOCK OF N NORTHLAKE WY","id":"1791849"},{"neighborhood":"Wallingford","localhood":null,"type":"TRAFFIC RELATED CALLS","lat":"47.648296","lng":"-122.3325","address":"21XX BLOCK OF N NORTHLAKE WY","id":"1791975"},{"neighborhood":"Wallingford","localhood":null,"type":"ROBBERY","lat":"47.661385","lng":"-122.335686","address":"18XX BLOCK OF N 45 ST","id":"1791977"},{"neighborhood":"Wallingford","localhood":null,"type":"DISTURBANCES","lat":"47.664974","lng":"-122.32286","address":"5 AV NE / NE 50 ST","id":"1791991"}],"numIncidents":16,"percentage":1.9583843329253363,"numVariance":11.331428571428571,"percentVariance":1.386955761496765},{"name":"Fremont","incidents":[{"neighborhood":"Fremont","localhood":null,"type":"CAR PROWL","lat":"47.65834","lng":"-122.35102","address":"42XX BLOCK OF EVANSTON AV N","id":"1791339"},{"neighborhood":"Fremont","localhood":null,"type":"SUSPICIOUS CIRCUMSTANCES","lat":"47.658947","lng":"-122.363464","address":"5XX BLOCK OF NW 43 ST","id":"1791341"},{"neighborhood":"Fremont","localhood":null,"type":"CRISIS CALL","lat":"47.65001","lng":"-122.34979","address":"34XX BLOCK OF FREMONT AV N","id":"1791475"},{"neighborhood":"Fremont","localhood":null,"type":"SUSPICIOUS CIRCUMSTANCES","lat":"47.65148","lng":"-122.35136","address":"N 36 ST / FREMONT PL N","id":"1791525"},{"neighborhood":"Fremont","localhood":null,"type":"RESIDENTIAL BURGLARIES","lat":"47.660316","lng":"-122.3422","address":"44XX BLOCK OF STONE WY N","id":"1791628"},{"neighborhood":"Fremont","localhood":null,"type":"BURGLARY ALACAD (FALSE)","lat":"47.66214","lng":"-122.354706","address":"3XX BLOCK OF N 46 ST","id":"1791649"},{"neighborhood":"Fremont","localhood":null,"type":"PARKING VIOLATIONS","lat":"47.66067","lng":"-122.34299","address":"12XX BLOCK OF N ALLEN PL","id":"1791785"},{"neighborhood":"Fremont","localhood":null,"type":"CRISIS CALL","lat":"47.65016","lng":"-122.34475","address":"35XX BLOCK OF ALBION PL N","id":"1791848"},{"neighborhood":"Fremont","localhood":null,"type":"AUTO THEFTS","lat":"47.652966","lng":"-122.357666","address":"N 36 ST / 1 AV NW","id":"1792004"},{"neighborhood":"Fremont","localhood":null,"type":"AUTO RECOVERIES","lat":"47.653557","lng":"-122.35766","address":"36XX BLOCK OF 1 AV NW","id":"1791999"}],"numIncidents":10,"percentage":1.2239902080783354,"numVariance":5.331428571428572,"percentVariance":0.652561636649764},{"name":"Green Lake","incidents":[{"neighborhood":"Green Lake","localhood":null,"type":"TRAFFIC RELATED CALLS","lat":"47.690536","lng":"-122.3413","address":"STONE AV N / N 85 ST","id":"1791234"},{"neighborhood":"Green Lake","localhood":null,"type":"THEFT","lat":"47.68246","lng":"-122.34448","address":"73XX BLOCK OF AURORA AV N","id":"1791373"},{"neighborhood":"Green Lake","localhood":null,"type":"SUSPICIOUS CIRCUMSTANCES","lat":"47.680687","lng":"-122.34495","address":"71XX BLOCK OF AURORA AV N","id":"1791487"},{"neighborhood":"Green Lake","localhood":null,"type":"TRAFFIC RELATED CALLS","lat":"47.683544","lng":"-122.34271","address":"STONE AV N / WINONA AV N","id":"1791555"},{"neighborhood":"Green Lake","localhood":null,"type":"SUSPICIOUS CIRCUMSTANCES","lat":"47.675865","lng":"-122.32185","address":"NE 65 ST / NE RAVENNA BV","id":"1791660"},{"neighborhood":"Green Lake","localhood":null,"type":"RESIDENTIAL BURGLARIES","lat":"47.683895","lng":"-122.33041","address":"74XX BLOCK OF CORLISS AV N","id":"1791751"},{"neighborhood":"Green Lake","localhood":null,"type":"PARKING VIOLATIONS","lat":"47.680893","lng":"-122.32232","address":"5XX BLOCK OF NE 72 ST","id":"1791784"},{"neighborhood":"Green Lake","localhood":null,"type":"SUSPICIOUS CIRCUMSTANCES","lat":"47.68694","lng":"-122.344505","address":"AURORA AV N / N 80 ST","id":"1791819"},{"neighborhood":"Green Lake","localhood":null,"type":"MISCELLANEOUS MISDEMEANORS","lat":"47.673706","lng":"-122.335655","address":"KIRKWOOD PL N / E GREEN LAKE WY N","id":"1791850"},{"neighborhood":"Green Lake","localhood":null,"type":"BURGLARY ALACAD (FALSE)","lat":"47.68586","lng":"-122.3445","address":"78XX BLOCK OF AURORA AV N","id":"1791929"}],"numIncidents":10,"percentage":1.2239902080783354,"numVariance":5.331428571428572,"percentVariance":0.652561636649764},{"name":"View Ridge","incidents":[{"neighborhood":"View Ridge","localhood":null,"type":"BURGLARY ALACAD (FALSE)","lat":"47.690945","lng":"-122.274704","address":"85XX BLOCK OF PAISLEY DR NE","id":"1791298"},{"neighborhood":"View Ridge","localhood":null,"type":"THREATS, HARASSMENT","lat":"47.676678","lng":"-122.27424","address":"65XX BLOCK OF 50 AV NE","id":"1791302"}],"numIncidents":2,"percentage":0.24479804161566704,"numVariance":-2.668571428571428,"percentVariance":-0.32663052981290436},{"name":"Ravenna","incidents":[{"neighborhood":"Ravenna","localhood":null,"type":"SUSPICIOUS CIRCUMSTANCES","lat":"47.6767","lng":"-122.30383","address":"65XX BLOCK OF RAVENNA AV NE","id":"1791569"},{"neighborhood":"Ravenna","localhood":null,"type":"BURGLARY ALACAD (FALSE)","lat":"47.663754","lng":"-122.29015","address":"47XX BLOCK OF 35 AV NE","id":"1791688"},{"neighborhood":"Ravenna","localhood":null,"type":"SUSPICIOUS CIRCUMSTANCES","lat":"47.66852","lng":"-122.30062","address":"25 AV NE / NE 55 ST","id":"1792018"}],"numIncidents":3,"percentage":0.36719706242350064,"numVariance":-1.6685714285714282,"percentVariance":-0.20423150900507075},{"name":"Sand Point","incidents":[{"neighborhood":"Sand Point","localhood":null,"type":"AUTO RECOVERIES","lat":"47.67889","lng":"-122.26223","address":"65XX BLOCK OF 62 AV NE","id":"1791303"}],"numIncidents":1,"percentage":0.12239902080783352,"numVariance":-3.668571428571428,"percentVariance":-0.4490295506207379},{"name":"Bryant","incidents":[{"neighborhood":"Bryant","localhood":null,"type":"PROPERTY - MISSING, FOUND","lat":"47.669415","lng":"-122.286865","address":"55XX BLOCK OF 38 AV NE","id":"1791319"}],"numIncidents":1,"percentage":0.12239902080783352,"numVariance":-3.668571428571428,"percentVariance":-0.4490295506207379},{"name":"Windermere","incidents":[{"neighborhood":"Windermere","localhood":null,"type":"BURGLARY ALACAD (FALSE)","lat":"47.669273","lng":"-122.26577","address":"57XX BLOCK OF NE 56 ST","id":"1791313"},{"neighborhood":"Windermere","localhood":null,"type":"HAZARDS","lat":"47.668667","lng":"-122.2757","address":"PRINCETON AV NE / BURKE GILMAN TL","id":"1791755"}],"numIncidents":2,"percentage":0.24479804161566704,"numVariance":-2.668571428571428,"percentVariance":-0.32663052981290436},{"name":"Laurelhurst","incidents":[{"neighborhood":"Laurelhurst","localhood":null,"type":"TRESPASS","lat":"47.66125","lng":"-122.2877","address":"37XX BLOCK OF NE 45 ST","id":"1791659"}],"numIncidents":1,"percentage":0.12239902080783352,"numVariance":-3.668571428571428,"percentVariance":-0.4490295506207379},{"name":"Roosevelt","incidents":[{"neighborhood":"Roosevelt","localhood":null,"type":"DISTURBANCES","lat":"47.684017","lng":"-122.317505","address":"75XX BLOCK OF ROOSEVELT WY NE","id":"1791280"},{"neighborhood":"Roosevelt","localhood":null,"type":"TRESPASS","lat":"47.677296","lng":"-122.31874","address":"8XX BLOCK OF NE 67 ST","id":"1791539"}],"numIncidents":2,"percentage":0.24479804161566704,"numVariance":-2.668571428571428,"percentVariance":-0.32663052981290436},{"name":"Georgetown","incidents":[{"neighborhood":"Georgetown","localhood":null,"type":"TRAFFIC RELATED CALLS","lat":"47.539433","lng":"-122.32038","address":"ELLIS AV S / S MYRTLE ST","id":"1791355"},{"neighborhood":"Georgetown","localhood":null,"type":"SUSPICIOUS CIRCUMSTANCES","lat":"47.548336","lng":"-122.31931","address":"9XX BLOCK OF S HARNEY ST","id":"1791378"},{"neighborhood":"Georgetown","localhood":null,"type":"PROPERTY - MISSING, FOUND","lat":"47.55146","lng":"-122.326904","address":"57XX BLOCK OF 6 AV S","id":"1791417"},{"neighborhood":"Georgetown","localhood":null,"type":"SUSPICIOUS CIRCUMSTANCES","lat":"47.551502","lng":"-122.323105","address":"7XX BLOCK OF S HOMER ST","id":"1791425"},{"neighborhood":"Georgetown","localhood":null,"type":"PROPERTY DAMAGE","lat":"47.542587","lng":"-122.320526","address":"67XX BLOCK OF FLORA AV S","id":"1791527"},{"neighborhood":"Georgetown","localhood":null,"type":"TRAFFIC RELATED CALLS","lat":"47.534267","lng":"-122.3132","address":"16 AV S / E MARGINAL WY S","id":"1791681"},{"neighborhood":"Georgetown","localhood":null,"type":"TRAFFIC RELATED CALLS","lat":"47.55335","lng":"-122.32101","address":"AIRPORT WY S / S LUCILE ST","id":"1791675"},{"neighborhood":"Georgetown","localhood":null,"type":"DISTURBANCES","lat":"47.549255","lng":"-122.32958","address":"59XX BLOCK OF 4 AV S","id":"1791764"},{"neighborhood":"Georgetown","localhood":null,"type":"TRAFFIC RELATED CALLS","lat":"47.54699","lng":"-122.31492","address":"STANLEY AV S / S ALBRO PL","id":"1791808"},{"neighborhood":"Georgetown","localhood":null,"type":"TRAFFIC RELATED CALLS","lat":"47.551914","lng":"-122.33623","address":"E MARGINAL WY S / S ORCAS ST","id":"1791869"}],"numIncidents":10,"percentage":1.2239902080783354,"numVariance":5.331428571428572,"percentVariance":0.652561636649764},{"name":"South Park","incidents":[{"neighborhood":"South Park","localhood":null,"type":"SUSPICIOUS CIRCUMSTANCES","lat":"47.53053","lng":"-122.32393","address":"7XX BLOCK OF S ELMGROVE ST","id":"1791240"},{"neighborhood":"South Park","localhood":null,"type":"HAZARDS","lat":"47.529804","lng":"-122.32154","address":"8XX BLOCK OF S SOUTHERN ST","id":"1791707"},{"neighborhood":"South Park","localhood":null,"type":"TRAFFIC RELATED CALLS","lat":"47.534145","lng":"-122.33214","address":"W MARGINAL WY S / S HOLDEN ST","id":"1791787"},{"neighborhood":"South Park","localhood":null,"type":"SUSPICIOUS CIRCUMSTANCES","lat":"47.52983","lng":"-122.32553","address":"S SOUTHERN ST / 7 AV S","id":"1791890"}],"numIncidents":4,"percentage":0.4895960832313341,"numVariance":-0.6685714285714282,"percentVariance":-0.08183248819723732},{"name":"Harbor Island","incidents":[],"numIncidents":0,"percentage":0,"numVariance":-4.668571428571428,"percentVariance":-0.5714285714285714},{"name":"Wedgwood","incidents":[{"neighborhood":"Wedgwood","localhood":null,"type":"CAR PROWL","lat":"47.687305","lng":"-122.28421","address":"80XX BLOCK OF 41 AV NE","id":"1791563"},{"neighborhood":"Wedgwood","localhood":null,"type":"THEFT","lat":"47.695755","lng":"-122.28001","address":"92XX BLOCK OF 45 AV NE","id":"1791747"},{"neighborhood":"Wedgwood","localhood":null,"type":"RESIDENTIAL BURGLARIES","lat":"47.695755","lng":"-122.28001","address":"92XX BLOCK OF 45 AV NE","id":"1791789"},{"neighborhood":"Wedgwood","localhood":null,"type":"NOISE DISTURBANCE","lat":"47.690903","lng":"-122.28379","address":"40XX BLOCK OF NE 86 ST","id":"1791972"}],"numIncidents":4,"percentage":0.4895960832313341,"numVariance":-0.6685714285714282,"percentVariance":-0.08183248819723732},{"name":"Industrial District","incidents":[{"neighborhood":"Industrial District","localhood":null,"type":"THEFT","lat":"47.572376","lng":"-122.32279","address":"AIRPORT WY S / DIAGONAL AV S","id":"1791250"},{"neighborhood":"Industrial District","localhood":null,"type":"SUSPICIOUS CIRCUMSTANCES","lat":"47.58992","lng":"-122.32232","address":"AIRPORT WY S / S ATLANTIC ST","id":"1791252"},{"neighborhood":"Industrial District","localhood":null,"type":"CRISIS CALL","lat":"47.566593","lng":"-122.33197","address":"41XX BLOCK OF 2 AV S","id":"1791260"},{"neighborhood":"Industrial District","localhood":null,"type":"HAZARDS","lat":"47.571724","lng":"-122.336784","address":"S SPOKANE ST / COLORADO AV S","id":"1791278"},{"neighborhood":"Industrial District","localhood":null,"type":"CRISIS CALL","lat":"47.568382","lng":"-122.334206","address":"1 AV S / S ANDOVER ST","id":"1791309"},{"neighborhood":"Industrial District","localhood":null,"type":"BURGLARY ALACAD (FALSE)","lat":"47.56593","lng":"-122.32472","address":"6XX BLOCK OF S INDUSTRIAL WY","id":"1791316"},{"neighborhood":"Industrial District","localhood":null,"type":"TRAFFIC RELATED CALLS","lat":"47.579807","lng":"-122.329056","address":"4 AV S / S LANDER ST","id":"1791371"},{"neighborhood":"Industrial District","localhood":null,"type":"TRAFFIC RELATED CALLS","lat":"47.57981","lng":"-122.32707","address":"5XX BLOCK OF S LANDER ST","id":"1791386"},{"neighborhood":"Industrial District","localhood":null,"type":"TRAFFIC RELATED CALLS","lat":"47.572","lng":"-122.35912","address":"W MARGINAL TURN RD / W MARGINAL WY SW","id":"1791520"},{"neighborhood":"Industrial District","localhood":null,"type":"ROBBERY","lat":"47.59278","lng":"-122.32277","address":"AIRPORT WY S / S ROYAL BROUGHAM WY","id":"1791793"},{"neighborhood":"Industrial District","localhood":null,"type":"NARCOTICS COMPLAINTS","lat":"47.585075","lng":"-122.329056","address":"19XX BLOCK OF 4 AV S","id":"1791756"},{"neighborhood":"Industrial District","localhood":null,"type":"THEFT","lat":"47.588226","lng":"-122.3235","address":"8 AV S / S MASSACHUSETTS ST","id":"1791749"},{"neighborhood":"Industrial District","localhood":null,"type":"THEFT","lat":"47.576653","lng":"-122.334206","address":"29XX BLOCK OF 1 AV S","id":"1791792"},{"neighborhood":"Industrial District","localhood":null,"type":"BURGLARY ALACAD (FALSE)","lat":"47.582935","lng":"-122.3342","address":"22XX BLOCK OF 1 AV S","id":"1791833"},{"neighborhood":"Industrial District","localhood":null,"type":"SUSPICIOUS CIRCUMSTANCES","lat":"47.583008","lng":"-122.321396","address":"AIRPORT WY S / S COLLEGE ST","id":"1791899"}],"numIncidents":15,"percentage":1.8359853121175032,"numVariance":10.331428571428571,"percentVariance":1.2645567406889318},{"name":"Broadview","incidents":[{"neighborhood":"Broadview","localhood":null,"type":"SUSPICIOUS CIRCUMSTANCES","lat":"47.724644","lng":"-122.36095","address":"131XX BLOCK OF 3 AV NW","id":"1791226"},{"neighborhood":"Broadview","localhood":null,"type":"CRISIS CALL","lat":"47.725956","lng":"-122.35555","address":"133XX BLOCK OF GREENWOOD AV N","id":"1791722"},{"neighborhood":"Broadview","localhood":null,"type":"HAZARDS","lat":"47.728493","lng":"-122.369934","address":"9XX BLOCK OF NW ELFORD DR","id":"1791754"},{"neighborhood":"Broadview","localhood":null,"type":"TRAFFIC RELATED CALLS","lat":"47.715973","lng":"-122.35553","address":"GREENWOOD AV N / N 120 ST","id":"1791743"},{"neighborhood":"Broadview","localhood":null,"type":"CRISIS CALL","lat":"47.70922","lng":"-122.360825","address":"110XX BLOCK OF 3 AV NW","id":"1791788"},{"neighborhood":"Broadview","localhood":null,"type":"DISTURBANCES","lat":"47.72873","lng":"-122.357574","address":"1XX BLOCK OF N 137 ST","id":"1791885"}],"numIncidents":6,"percentage":0.7343941248470013,"numVariance":1.3314285714285718,"percentVariance":0.1629655534184299},{"name":"Bitter Lake","incidents":[{"neighborhood":"Bitter Lake","localhood":null,"type":"SUSPICIOUS CIRCUMSTANCES","lat":"47.7058","lng":"-122.3447","address":"105XX BLOCK OF AURORA AV N","id":"1791269"},{"neighborhood":"Bitter Lake","localhood":null,"type":"DISTURBANCES","lat":"47.7058","lng":"-122.3447","address":"105XX BLOCK OF AURORA AV N","id":"1791268"},{"neighborhood":"Bitter Lake","localhood":null,"type":"DISTURBANCES","lat":"47.705082","lng":"-122.35478","address":"3XX BLOCK OF N 105 ST","id":"1791283"},{"neighborhood":"Bitter Lake","localhood":null,"type":"SUSPICIOUS CIRCUMSTANCES","lat":"47.7058","lng":"-122.3447","address":"105XX BLOCK OF AURORA AV N","id":"1791424"},{"neighborhood":"Bitter Lake","localhood":null,"type":"VICE CALLS","lat":"47.729584","lng":"-122.34505","address":"137XX BLOCK OF AURORA AV N","id":"1791828"}],"numIncidents":5,"percentage":0.6119951040391677,"numVariance":0.33142857142857185,"percentVariance":0.040566532610596284},{"name":"North Beach - Blue Ridge","incidents":[],"numIncidents":0,"percentage":0,"numVariance":-4.668571428571428,"percentVariance":-0.5714285714285714},{"name":"Crown Hill","incidents":[{"neighborhood":"Crown Hill","localhood":null,"type":"THEFT","lat":"47.69243","lng":"-122.3768","address":"15 AV NW / NW 87 ST","id":"1791392"},{"neighborhood":"Crown Hill","localhood":null,"type":"PARKING VIOLATIONS","lat":"47.700264","lng":"-122.37678","address":"96XX BLOCK OF 15 AV NW","id":"1791415"},{"neighborhood":"Crown Hill","localhood":null,"type":"SUSPICIOUS CIRCUMSTANCES","lat":"47.696667","lng":"-122.37204","address":"92XX BLOCK OF HOLMAN RD NW","id":"1791998"}],"numIncidents":3,"percentage":0.36719706242350064,"numVariance":-1.6685714285714282,"percentVariance":-0.20423150900507075},{"name":"Greenwood","incidents":[{"neighborhood":"Greenwood","localhood":null,"type":"DISTURBANCES","lat":"47.705048","lng":"-122.344696","address":"AURORA AV N / N 105 ST","id":"1791174"},{"neighborhood":"Greenwood","localhood":null,"type":"SUSPICIOUS CIRCUMSTANCES","lat":"47.68657","lng":"-122.36333","address":"79XX BLOCK OF 6 AV NW","id":"1791232"},{"neighborhood":"Greenwood","localhood":null,"type":"SUSPICIOUS CIRCUMSTANCES","lat":"47.689835","lng":"-122.34586","address":"9XX BLOCK OF N 84 ST","id":"1791251"},{"neighborhood":"Greenwood","localhood":null,"type":"CRISIS CALL","lat":"47.685486","lng":"-122.35386","address":"3XX BLOCK OF N 78 ST","id":"1791249"},{"neighborhood":"Greenwood","localhood":null,"type":"PERSONS - LOST, FOUND, MISSING","lat":"47.70312","lng":"-122.362724","address":"4XX BLOCK OF NW 100 PL","id":"1791287"},{"neighborhood":"Greenwood","localhood":null,"type":"TRAFFIC RELATED CALLS","lat":"47.695633","lng":"-122.34458","address":"N 92 ST / AURORA AV N","id":"1791326"},{"neighborhood":"Greenwood","localhood":null,"type":"SUSPICIOUS CIRCUMSTANCES","lat":"47.694183","lng":"-122.34457","address":"N 90 ST / AURORA AV N","id":"1791320"},{"neighborhood":"Greenwood","localhood":null,"type":"THEFT","lat":"47.69353","lng":"-122.36468","address":"6XX BLOCK OF NW 89 ST","id":"1791560"},{"neighborhood":"Greenwood","localhood":null,"type":"SUSPICIOUS CIRCUMSTANCES","lat":"47.693478","lng":"-122.349945","address":"FREMONT AV N / N 89 ST","id":"1791738"},{"neighborhood":"Greenwood","localhood":null,"type":"SUSPICIOUS CIRCUMSTANCES","lat":"47.699677","lng":"-122.36338","address":"6 AV NW / NW 97 ST","id":"1791591"},{"neighborhood":"Greenwood","localhood":null,"type":"HAZARDS","lat":"47.68839","lng":"-122.35261","address":"N 82 ST / DAYTON AV N","id":"1791603"},{"neighborhood":"Greenwood","localhood":null,"type":"SUSPICIOUS CIRCUMSTANCES","lat":"47.69059","lng":"-122.353264","address":"4XX BLOCK OF N 85 ST","id":"1791601"},{"neighborhood":"Greenwood","localhood":null,"type":"PARKING VIOLATIONS","lat":"47.68694","lng":"-122.35125","address":"5XX BLOCK OF N 80 ST","id":"1791633"},{"neighborhood":"Greenwood","localhood":null,"type":"THREATS, HARASSMENT","lat":"47.69782","lng":"-122.34865","address":"7XX BLOCK OF N 95 ST","id":"1791711"},{"neighborhood":"Greenwood","localhood":null,"type":"DISTURBANCES","lat":"47.693317","lng":"-122.35533","address":"87XX BLOCK OF GREENWOOD AV N","id":"1791716"},{"neighborhood":"Greenwood","localhood":null,"type":"THEFT","lat":"47.692196","lng":"-122.34454","address":"87XX BLOCK OF AURORA AV N","id":"1791811"},{"neighborhood":"Greenwood","localhood":null,"type":"ASSAULTS","lat":"47.690617","lng":"-122.359314","address":"1XX BLOCK OF NW 85 ST","id":"1791870"},{"neighborhood":"Greenwood","localhood":null,"type":"DISTURBANCES","lat":"47.70433","lng":"-122.34603","address":"9XX BLOCK OF N 104 ST","id":"1791875"},{"neighborhood":"Greenwood","localhood":null,"type":"SUSPICIOUS CIRCUMSTANCES","lat":"47.693333","lng":"-122.35801","address":"87XX BLOCK OF 1 AV NW","id":"1791879"},{"neighborhood":"Greenwood","localhood":null,"type":"SUSPICIOUS CIRCUMSTANCES","lat":"47.684765","lng":"-122.345856","address":"9XX BLOCK OF N 77 ST","id":"1791935"},{"neighborhood":"Greenwood","localhood":null,"type":"SUSPICIOUS CIRCUMSTANCES","lat":"47.703613","lng":"-122.34871","address":"7XX BLOCK OF N 103 ST","id":"1791962"},{"neighborhood":"Greenwood","localhood":null,"type":"TRAFFIC RELATED CALLS","lat":"47.69057","lng":"-122.347206","address":"N 85 ST / LINDEN AV N","id":"1792024"},{"neighborhood":"Greenwood","localhood":null,"type":"NUISANCE, MISCHIEF COMPLAINTS","lat":"47.70433","lng":"-122.34603","address":"9XX BLOCK OF N 104 ST","id":"1792020"},{"neighborhood":"Greenwood","localhood":null,"type":"ASSAULTS","lat":"47.69256","lng":"-122.34454","address":"88XX BLOCK OF AURORA AV N","id":"1792023"}],"numIncidents":24,"percentage":2.937576499388005,"numVariance":19.33142857142857,"percentVariance":2.3661479279594335},{"name":"South Juanita","incidents":[],"numIncidents":0,"percentage":0,"numVariance":-4.668571428571428,"percentVariance":-0.5714285714285714},{"name":"Kingsgate","incidents":[],"numIncidents":0,"percentage":0,"numVariance":-4.668571428571428,"percentVariance":-0.5714285714285714},{"name":"North Juanita","incidents":[],"numIncidents":0,"percentage":0,"numVariance":-4.668571428571428,"percentVariance":-0.5714285714285714},{"name":"Finn Hill","incidents":[],"numIncidents":0,"percentage":0,"numVariance":-4.668571428571428,"percentVariance":-0.5714285714285714},{"name":"Bridle Trails","incidents":[],"numIncidents":0,"percentage":0,"numVariance":-4.668571428571428,"percentVariance":-0.5714285714285714},{"name":"Central Houghton","incidents":[],"numIncidents":0,"percentage":0,"numVariance":-4.668571428571428,"percentVariance":-0.5714285714285714},{"name":"Lakeview","incidents":[],"numIncidents":0,"percentage":0,"numVariance":-4.668571428571428,"percentVariance":-0.5714285714285714},{"name":"Moss Bay","incidents":[],"numIncidents":0,"percentage":0,"numVariance":-4.668571428571428,"percentVariance":-0.5714285714285714},{"name":"Everest","incidents":[],"numIncidents":0,"percentage":0,"numVariance":-4.668571428571428,"percentVariance":-0.5714285714285714},{"name":"South Rose Hill","incidents":[],"numIncidents":0,"percentage":0,"numVariance":-4.668571428571428,"percentVariance":-0.5714285714285714},{"name":"North Rose Hill","incidents":[],"numIncidents":0,"percentage":0,"numVariance":-4.668571428571428,"percentVariance":-0.5714285714285714},{"name":"Highlands","incidents":[],"numIncidents":0,"percentage":0,"numVariance":-4.668571428571428,"percentVariance":-0.5714285714285714},{"name":"Norkirk","incidents":[],"numIncidents":0,"percentage":0,"numVariance":-4.668571428571428,"percentVariance":-0.5714285714285714},{"name":"Totem Lake","incidents":[],"numIncidents":0,"percentage":0,"numVariance":-4.668571428571428,"percentVariance":-0.5714285714285714},{"name":"Market","incidents":[],"numIncidents":0,"percentage":0,"numVariance":-4.668571428571428,"percentVariance":-0.5714285714285714},{"name":"Kennydale","incidents":[],"numIncidents":0,"percentage":0,"numVariance":-4.668571428571428,"percentVariance":-0.5714285714285714},{"name":"Valley","incidents":[],"numIncidents":0,"percentage":0,"numVariance":-4.668571428571428,"percentVariance":-0.5714285714285714},{"name":"West Hill","incidents":[],"numIncidents":0,"percentage":0,"numVariance":-4.668571428571428,"percentVariance":-0.5714285714285714},{"name":"Fairwood","incidents":[],"numIncidents":0,"percentage":0,"numVariance":-4.668571428571428,"percentVariance":-0.5714285714285714},{"name":"Cedar River","incidents":[],"numIncidents":0,"percentage":0,"numVariance":-4.668571428571428,"percentVariance":-0.5714285714285714},{"name":"City Center","incidents":[],"numIncidents":0,"percentage":0,"numVariance":-4.668571428571428,"percentVariance":-0.5714285714285714},{"name":"Benson","incidents":[],"numIncidents":0,"percentage":0,"numVariance":-4.668571428571428,"percentVariance":-0.5714285714285714},{"name":"Talbot","incidents":[],"numIncidents":0,"percentage":0,"numVariance":-4.668571428571428,"percentVariance":-0.5714285714285714},{"name":"East Plateau","incidents":[],"numIncidents":0,"percentage":0,"numVariance":-4.668571428571428,"percentVariance":-0.5714285714285714},{"name":"Highlands","incidents":[],"numIncidents":0,"percentage":0,"numVariance":-4.668571428571428,"percentVariance":-0.5714285714285714},{"name":"West Bellevue","incidents":[],"numIncidents":0,"percentage":0,"numVariance":-4.668571428571428,"percentVariance":-0.5714285714285714},{"name":"Wilburton","incidents":[],"numIncidents":0,"percentage":0,"numVariance":-4.668571428571428,"percentVariance":-0.5714285714285714},{"name":"Woodridge","incidents":[],"numIncidents":0,"percentage":0,"numVariance":-4.668571428571428,"percentVariance":-0.5714285714285714},{"name":"Newport","incidents":[],"numIncidents":0,"percentage":0,"numVariance":-4.668571428571428,"percentVariance":-0.5714285714285714},{"name":"Somerset","incidents":[],"numIncidents":0,"percentage":0,"numVariance":-4.668571428571428,"percentVariance":-0.5714285714285714},{"name":"Bridle Trails","incidents":[],"numIncidents":0,"percentage":0,"numVariance":-4.668571428571428,"percentVariance":-0.5714285714285714},{"name":"Northeast Bellevue","incidents":[],"numIncidents":0,"percentage":0,"numVariance":-4.668571428571428,"percentVariance":-0.5714285714285714},{"name":"Crossroads","incidents":[],"numIncidents":0,"percentage":0,"numVariance":-4.668571428571428,"percentVariance":-0.5714285714285714},{"name":"West Lake Hills","incidents":[],"numIncidents":0,"percentage":0,"numVariance":-4.668571428571428,"percentVariance":-0.5714285714285714},{"name":"Factoria","incidents":[],"numIncidents":0,"percentage":0,"numVariance":-4.668571428571428,"percentVariance":-0.5714285714285714},{"name":"Northwest Bellevue","incidents":[],"numIncidents":0,"percentage":0,"numVariance":-4.668571428571428,"percentVariance":-0.5714285714285714},{"name":"Sammamish - East Lake HillS","incidents":[],"numIncidents":0,"percentage":0,"numVariance":-4.668571428571428,"percentVariance":-0.5714285714285714},{"name":"Eastgate - Cougar Mountain","incidents":[],"numIncidents":0,"percentage":0,"numVariance":-4.668571428571428,"percentVariance":-0.5714285714285714},{"name":"Vashon Island","incidents":[],"numIncidents":0,"percentage":0,"numVariance":-4.668571428571428,"percentVariance":-0.5714285714285714},{"name":"White Center","incidents":[],"numIncidents":0,"percentage":0,"numVariance":-4.668571428571428,"percentVariance":-0.5714285714285714},{"name":"Upper West Ridge","incidents":[],"numIncidents":0,"percentage":0,"numVariance":-4.668571428571428,"percentVariance":-0.5714285714285714}]